[
  {
    "name": "주식회사 이즈모터스(권선점)",
    "grade": "1급",
    "priority": 2,
    "HCS": "Y",
    "phone": "0312928787",
    "address": "경기 수원시 권선구 오목천로 56 ",
    "lat": "37.2396191",
    "lng": "126.9687613",
    "monthlyCapacity": "ㅇㅇ대",
    "currentIncoming": "ㅇㅇ대",
    "possibleIncoming": "ㅇㅇ대",
    "repairGeneral": "○",
    "repairAccident": "○",
    "pointHyundai": "-",
    "pointKia": "-",
    "notes": "-",
    "registerDate": 20250701
  },
  {
    "name": "주식회사 카민랩(포터앤봉고)",
    "grade": "2급",
    "priority": 2,
    "HCS": "Y",
    "phone": "01027338484",
    "address": "경기 여주시 농산로 101 ()",
    "lat": "37.2509149",
    "lng": "127.6366669",
    "monthlyCapacity": "ㅇㅇ대",
    "currentIncoming": "ㅇㅇ대",
    "possibleIncoming": "ㅇㅇ대",
    "repairGeneral": "○",
    "repairAccident": "○",
    "pointHyundai": "-",
    "pointKia": "-",
    "notes": "",
    "registerDate": 20250701
  },
  {
    "name": "화성서비스",
    "grade": "1급",
    "priority": 2,
    "HCS": "Y",
    "phone": "0313598812",
    "address": "경기 화성시 양감면 은행나무로 432-3 ()",
    "lat": "37.0959556",
    "lng": "126.9402187",
    "monthlyCapacity": "ㅇㅇ대",
    "currentIncoming": "ㅇㅇ대",
    "possibleIncoming": "ㅇㅇ대",
    "repairGeneral": "ⅹ",
    "repairAccident": "○",
    "pointHyundai": "-",
    "pointKia": "-",
    "notes": "(상용겸용)",
    "registerDate": 20250701
  },
  {
    "name": "(주)원진자동차",
    "grade": "1급",
    "priority": 1,
    "HCS": "Y",
    "phone": "0319769553",
    "address": "경기도 고양시 일산동구 성현로 151 (성석동)",
    "lat": "37.7091164",
    "lng": "126.8026945",
    "monthlyCapacity": "ㅇㅇ대",
    "currentIncoming": "ㅇㅇ대",
    "possibleIncoming": "ㅇㅇ대",
    "repairGeneral": "ⅹ",
    "repairAccident": "○",
    "pointHyundai": "-",
    "pointKia": "-",
    "notes": "",
    "registerDate": 20250701
  },
  {
    "name": "운산1급자동차정비공장",
    "grade": "1급",
    "priority": 2,
    "HCS": "Y",
    "phone": "028999191",
    "address": "경기도 광명시 구름산로 43 (하안동)",
    "lat": "37.4576958",
    "lng": "126.8778855",
    "monthlyCapacity": "ㅇㅇ대",
    "currentIncoming": "ㅇㅇ대",
    "possibleIncoming": "ㅇㅇ대",
    "repairGeneral": "ⅹ",
    "repairAccident": "○",
    "pointHyundai": "-",
    "pointKia": "-",
    "notes": "",
    "registerDate": 20250701
  },
  {
    "name": "태재자동차공업사",
    "grade": "1급",
    "priority": 2,
    "HCS": "Y",
    "phone": "0317267474",
    "address": "경기도 광주시 능평로 102 (오포읍)",
    "lat": "37.3498961",
    "lng": "127.1688409",
    "monthlyCapacity": "ㅇㅇ대",
    "currentIncoming": "ㅇㅇ대",
    "possibleIncoming": "ㅇㅇ대",
    "repairGeneral": "ⅹ",
    "repairAccident": "○",
    "pointHyundai": "-",
    "pointKia": "-",
    "notes": "",
    "registerDate": 20250701
  },
  {
    "name": "케이현대자동차공업사 주식회사",
    "grade": "2급",
    "priority": 2,
    "HCS": "Y",
    "phone": "031-559-1215",
    "address": "경기도 남양주시 재재기로 40 (화도읍)",
    "lat": "37.6304532",
    "lng": "127.3019527",
    "monthlyCapacity": "ㅇㅇ대",
    "currentIncoming": "ㅇㅇ대",
    "possibleIncoming": "ㅇㅇ대",
    "repairGeneral": "○",
    "repairAccident": "○",
    "pointHyundai": "-",
    "pointKia": "-",
    "notes": "(상용겸용)",
    "registerDate": 20250701
  },
  {
    "name": "남부자동차서비스",
    "grade": "1급",
    "priority": 1,
    "HCS": "Y",
    "phone": "0326138866",
    "address": "경기도 부천시 경인로138번길 9 (송내동)",
    "lat": "37.4837503",
    "lng": "126.7713587",
    "monthlyCapacity": "ㅇㅇ대",
    "currentIncoming": "ㅇㅇ대",
    "possibleIncoming": "ㅇㅇ대",
    "repairGeneral": "ⅹ",
    "repairAccident": "○",
    "pointHyundai": "-",
    "pointKia": "-",
    "notes": "",
    "registerDate": 20250701
  },
  {
    "name": "(주)대영오토모터스",
    "grade": "1급",
    "priority": 1,
    "HCS": "Y",
    "phone": "010-5259-4441",
    "address": "경기도 수원시 영통구 매영로 219-8 (원천동, (주)하프앤드)",
    "lat": "37.2615201",
    "lng": "127.0643758",
    "monthlyCapacity": "ㅇㅇ대",
    "currentIncoming": "ㅇㅇ대",
    "possibleIncoming": "ㅇㅇ대",
    "repairGeneral": "○",
    "repairAccident": "○",
    "pointHyundai": "-",
    "pointKia": "-",
    "notes": "-",
    "registerDate": 20250701
  },
  {
    "name": "(주)국제카독크",
    "grade": "1급",
    "priority": 2,
    "HCS": "Y",
    "phone": "0314986464",
    "address": "경기도 시흥시 공단1대로260번길 6 (정왕동)",
    "lat": "37.3347225",
    "lng": "126.7287681",
    "monthlyCapacity": "ㅇㅇ대",
    "currentIncoming": "ㅇㅇ대",
    "possibleIncoming": "ㅇㅇ대",
    "repairGeneral": "ⅹ",
    "repairAccident": "○",
    "pointHyundai": "-",
    "pointKia": "-",
    "notes": "(유리입고금지)",
    "registerDate": 20250701
  },
  {
    "name": "형제자동차정비",
    "grade": "2급",
    "priority": 1,
    "HCS": "Y",
    "phone": "0314055454",
    "address": "경기도 안산시 상록구 안산천서로6길 6 (월피동, 형제자동차정비)",
    "lat": "37.3380852",
    "lng": "126.8499001",
    "monthlyCapacity": "ㅇㅇ대",
    "currentIncoming": "ㅇㅇ대",
    "possibleIncoming": "ㅇㅇ대",
    "repairGeneral": "ⅹ",
    "repairAccident": "○",
    "pointHyundai": "-",
    "pointKia": "-",
    "notes": "",
    "registerDate": 20250701
  },
  {
    "name": "JS모터스",
    "grade": "1급",
    "priority": 2,
    "HCS": "Y",
    "phone": "0316748611",
    "address": "경기도 안성시 종합운동장로 43 (금광면)",
    "lat": "37.0029789",
    "lng": "127.3242151",
    "monthlyCapacity": "ㅇㅇ대",
    "currentIncoming": "ㅇㅇ대",
    "possibleIncoming": "ㅇㅇ대",
    "repairGeneral": "ⅹ",
    "repairAccident": "○",
    "pointHyundai": "-",
    "pointKia": "-",
    "notes": "",
    "registerDate": 20250701
  },
  {
    "name": "오토맥스",
    "grade": "1급",
    "priority": 2,
    "HCS": "Y",
    "phone": "0314560037",
    "address": "경기도 안양시 동안구 흥안대로439번길 67-1 (관양동)",
    "lat": "37.3927703",
    "lng": "126.9707131",
    "monthlyCapacity": "ㅇㅇ대",
    "currentIncoming": "ㅇㅇ대",
    "possibleIncoming": "ㅇㅇ대",
    "repairGeneral": "ⅹ",
    "repairAccident": "○",
    "pointHyundai": "-",
    "pointKia": "-",
    "notes": "",
    "registerDate": 20250701
  },
  {
    "name": "1급정우자동차",
    "grade": "1급",
    "priority": 2,
    "HCS": "Y",
    "phone": "0318799595",
    "address": "경기도 양주시 양주산성로 838-14 (백석읍)",
    "lat": "37.7932470",
    "lng": "126.9695112",
    "monthlyCapacity": "ㅇㅇ대",
    "currentIncoming": "ㅇㅇ대",
    "possibleIncoming": "ㅇㅇ대",
    "repairGeneral": "ⅹ",
    "repairAccident": "○",
    "pointHyundai": "-",
    "pointKia": "-",
    "notes": "",
    "registerDate": 20250701
  },
  {
    "name": "티에이치모터스(오산)",
    "grade": "1급",
    "priority": 1,
    "HCS": "Y",
    "phone": "0313784973",
    "address": "경기도 오산시 청학로 108 (궐동, 티에이치모터스)",
    "lat": "37.1584787",
    "lng": "127.0647336",
    "monthlyCapacity": "ㅇㅇ대",
    "currentIncoming": "ㅇㅇ대",
    "possibleIncoming": "ㅇㅇ대",
    "repairGeneral": "ⅹ",
    "repairAccident": "○",
    "pointHyundai": "-",
    "pointKia": "-",
    "notes": "",
    "registerDate": 20250701
  },
  {
    "name": "태강자동차공업사",
    "grade": "2급",
    "priority": 2,
    "HCS": "Y",
    "phone": "0313214949",
    "address": "경기도 용인시 처인구 중부대로 1585-1 (마평동, 태강자동차공업사)",
    "lat": "37.2335701",
    "lng": "127.2207175",
    "monthlyCapacity": "ㅇㅇ대",
    "currentIncoming": "ㅇㅇ대",
    "possibleIncoming": "ㅇㅇ대",
    "repairGeneral": "ⅹ",
    "repairAccident": "○",
    "pointHyundai": "-",
    "pointKia": "-",
    "notes": "(상용겸용)",
    "registerDate": 20250701
  },
  {
    "name": "한진자동차정비",
    "grade": "2급",
    "priority": 1,
    "HCS": "Y",
    "phone": "0314597200",
    "address": "경기도 의왕시 고산로 28 (고천동, 한진화학(주))",
    "lat": "37.3523856",
    "lng": "126.9680223",
    "monthlyCapacity": "ㅇㅇ대",
    "currentIncoming": "ㅇㅇ대",
    "possibleIncoming": "ㅇㅇ대",
    "repairGeneral": "ⅹ",
    "repairAccident": "○",
    "pointHyundai": "-",
    "pointKia": "-",
    "notes": "",
    "registerDate": 20250701
  },
  {
    "name": "(주)북부현대공업사",
    "grade": "2급",
    "priority": 2,
    "HCS": "Y",
    "phone": "0318511119",
    "address": "경기도 의정부시 용현로105번길 45-7 (민락동, 북부현대공업사)",
    "lat": "37.7431752",
    "lng": "127.0865684",
    "monthlyCapacity": "ㅇㅇ대",
    "currentIncoming": "ㅇㅇ대",
    "possibleIncoming": "ㅇㅇ대",
    "repairGeneral": "ⅹ",
    "repairAccident": "○",
    "pointHyundai": "-",
    "pointKia": "-",
    "notes": "",
    "registerDate": 20250701
  },
  {
    "name": "가능현대공업사",
    "grade": "2급",
    "priority": 1,
    "HCS": "Y",
    "phone": "0318710003",
    "address": "경기도 의정부시 입석로55번길 21 (가능동)",
    "lat": "37.7539411",
    "lng": "127.0192197",
    "monthlyCapacity": "ㅇㅇ대",
    "currentIncoming": "ㅇㅇ대",
    "possibleIncoming": "ㅇㅇ대",
    "repairGeneral": "ⅹ",
    "repairAccident": "○",
    "pointHyundai": "-",
    "pointKia": "-",
    "notes": "",
    "registerDate": 20250701
  },
  {
    "name": "대월현대자동차공업사",
    "grade": "2급",
    "priority": 1,
    "HCS": "Y",
    "phone": "0316319506",
    "address": "경기도 이천시 경충대로 1593 (대월면)",
    "lat": "37.2222546",
    "lng": "127.5243437",
    "monthlyCapacity": "ㅇㅇ대",
    "currentIncoming": "ㅇㅇ대",
    "possibleIncoming": "ㅇㅇ대",
    "repairGeneral": "ⅹ",
    "repairAccident": "○",
    "pointHyundai": "-",
    "pointKia": "-",
    "notes": "(얼라이먼트X)",
    "registerDate": 20250701
  },
  {
    "name": "JK공업사",
    "grade": "1급",
    "priority": 2,
    "HCS": "Y",
    "phone": "0319460196",
    "address": "경기도 파주시 아리랑로 8 (금촌동)",
    "lat": "37.7620471",
    "lng": "126.7677884",
    "monthlyCapacity": "ㅇㅇ대",
    "currentIncoming": "ㅇㅇ대",
    "possibleIncoming": "ㅇㅇ대",
    "repairGeneral": "ⅹ",
    "repairAccident": "○",
    "pointHyundai": "-",
    "pointKia": "-",
    "notes": "",
    "registerDate": 20250701
  },
  {
    "name": "(주)우석공업사",
    "grade": "1급",
    "priority": 1,
    "HCS": "Y",
    "phone": "0316676077",
    "address": "경기도 평택시 노루댕이1길 14 (장당동)",
    "lat": "37.0445414",
    "lng": "127.0637983",
    "monthlyCapacity": "ㅇㅇ대",
    "currentIncoming": "ㅇㅇ대",
    "possibleIncoming": "ㅇㅇ대",
    "repairGeneral": "○",
    "repairAccident": "○",
    "pointHyundai": "-",
    "pointKia": "-",
    "notes": "(검사가능)",
    "registerDate": 20250701
  },
  {
    "name": "그린서비스",
    "grade": "2급",
    "priority": 1,
    "HCS": "Y",
    "phone": "0226685607",
    "address": "서울 강서구 남부순환로19길 48-37 (금만물산)",
    "lat": 37.5465596,
    "lng": 126.82533,
    "monthlyCapacity": "ㅇㅇ대",
    "currentIncoming": "ㅇㅇ대",
    "possibleIncoming": "ㅇㅇ대",
    "repairGeneral": "ⅹ",
    "repairAccident": "○",
    "pointHyundai": "-",
    "pointKia": "-",
    "notes": "-",
    "registerDate": 20250701
  },
  {
    "name": "(주)위드모터스",
    "grade": "2급",
    "priority": 1,
    "HCS": "Y",
    "phone": "028521116",
    "address": "서울특별시 금천구 가산로 50-7 (독산동)",
    "lat": "37.4719731",
    "lng": "126.8971256",
    "monthlyCapacity": "ㅇㅇ대",
    "currentIncoming": "ㅇㅇ대",
    "possibleIncoming": "ㅇㅇ대",
    "repairGeneral": "ⅹ",
    "repairAccident": "○",
    "pointHyundai": "-",
    "pointKia": "-",
    "notes": "",
    "registerDate": 20250701
  },
  {
    "name": "동우자동차공업사",
    "grade": "1급",
    "priority": 2,
    "HCS": "Y",
    "phone": "029542834",
    "address": "서울특별시 도봉구 방학로 45 (방학동, 방학동정비공장)",
    "lat": "37.6624088",
    "lng": "127.0471185",
    "monthlyCapacity": "ㅇㅇ대",
    "currentIncoming": "ㅇㅇ대",
    "possibleIncoming": "ㅇㅇ대",
    "repairGeneral": "ⅹ",
    "repairAccident": "○",
    "pointHyundai": "-",
    "pointKia": "-",
    "notes": "",
    "registerDate": 20250701
  },
  {
    "name": "(주)위드모터스(서초)",
    "grade": "1급",
    "priority": 2,
    "HCS": "Y",
    "phone": "028521116",
    "address": "서울특별시 서초구 명달로 36",
    "lat": 37.4807646,
    "lng": 127.0056,
    "monthlyCapacity": "-",
    "currentIncoming": "-",
    "possibleIncoming": "-",
    "repairGeneral": "ⅹ",
    "repairAccident": "○",
    "pointHyundai": "-",
    "pointKia": "-",
    "notes": "",
    "registerDate": 20250701
  },
  {
    "name": "(주)트루모터스",
    "grade": "1급",
    "priority": 1,
    "HCS": "Y",
    "phone": "024699993",
    "address": "서울특별시 성동구 연무장길 87 (성수동2가)",
    "lat": "37.5416245",
    "lng": "127.0589631",
    "monthlyCapacity": "ㅇㅇ대",
    "currentIncoming": "ㅇㅇ대",
    "possibleIncoming": "ㅇㅇ대",
    "repairGeneral": "ⅹ",
    "repairAccident": "○",
    "pointHyundai": "-",
    "pointKia": "-",
    "notes": "",
    "registerDate": 20250701
  },
  {
    "name": "(주)대성카독크",
    "grade": "1급",
    "priority": 2,
    "HCS": "Y",
    "phone": "0226764112",
    "address": "서울특별시 영등포구 양평로19길 31 (양평동4가)",
    "lat": "37.5346956",
    "lng": "126.8936772",
    "monthlyCapacity": "ㅇㅇ대",
    "currentIncoming": "ㅇㅇ대",
    "possibleIncoming": "ㅇㅇ대",
    "repairGeneral": "ⅹ",
    "repairAccident": "○",
    "pointHyundai": "-",
    "pointKia": "-",
    "notes": "(유리입고금지)",
    "registerDate": 20250701
  },
  {
    "name": "중랑자동차공업주식회사",
    "grade": "1급",
    "priority": 2,
    "HCS": "Y",
    "phone": "024388600",
    "address": "서울특별시 중랑구 망우로 189 (중화동, 중랑자동차공업(주))",
    "lat": "37.5938447",
    "lng": "127.0737281",
    "monthlyCapacity": "ㅇㅇ대",
    "currentIncoming": "ㅇㅇ대",
    "possibleIncoming": "ㅇㅇ대",
    "repairGeneral": "ⅹ",
    "repairAccident": "○",
    "pointHyundai": "-",
    "pointKia": "-",
    "notes": "(상용겸용)",
    "registerDate": 20250701
  },
  {
    "name": "아트샵모터스",
    "grade": "1급",
    "priority": 2,
    "HCS": "Y",
    "phone": "01037588205",
    "address": "인천 서구 봉수대로 251 ()",
    "lat": "37.4980062",
    "lng": "126.6609014",
    "monthlyCapacity": "ㅇㅇ대",
    "currentIncoming": "ㅇㅇ대",
    "possibleIncoming": "ㅇㅇ대",
    "repairGeneral": "ⅹ",
    "repairAccident": "○",
    "pointHyundai": "-",
    "pointKia": "-",
    "notes": "(예약必)",
    "registerDate": 20250701
  },
  {
    "name": "유너모터스",
    "grade": "1급",
    "priority": 2,
    "HCS": "Y",
    "phone": "0328653934",
    "address": "인천광역시 미추홀구 염전로 381 (주안동)",
    "lat": "37.4703718",
    "lng": "126.6823328",
    "monthlyCapacity": "ㅇㅇ대",
    "currentIncoming": "ㅇㅇ대",
    "possibleIncoming": "ㅇㅇ대",
    "repairGeneral": "ⅹ",
    "repairAccident": "○",
    "pointHyundai": "-",
    "pointKia": "-",
    "notes": "",
    "registerDate": 20250701
  },
  {
    "name": "인천오토컴퍼니",
    "grade": "1급",
    "priority": 2,
    "HCS": "Y",
    "phone": "0328636080",
    "address": "인천 중구 서해대로180번길 65",
    "lat": 37.4418305,
    "lng": 126.628761,
    "monthlyCapacity": "ㅇㅇ대",
    "currentIncoming": "ㅇㅇ대",
    "possibleIncoming": "ㅇㅇ대",
    "repairGeneral": "ⅹ",
    "repairAccident": "○",
    "pointHyundai": "-",
    "pointKia": "-",
    "notes": "수입차 사고수리 가능",
    "registerDate": 20250701
  },
  {
    "name": "성은자동차공업사",
    "grade": "1급",
    "priority": 1,
    "HCS": "Y",
    "phone": "0336370550",
    "address": "강원도 속초시 싸리재길 247-26",
    "lat": 38.1835353,
    "lng": 128.558823,
    "monthlyCapacity": "ㅇㅇ대",
    "currentIncoming": "ㅇㅇ대",
    "possibleIncoming": "ㅇㅇ대",
    "repairGeneral": "ⅹ",
    "repairAccident": "○",
    "pointHyundai": "-",
    "pointKia": "-",
    "notes": "(상용겸용)",
    "registerDate": 20250701
  },
  {
    "name": "순호자동차공업사",
    "grade": "1급",
    "priority": 1,
    "HCS": "Y",
    "phone": "0337473300",
    "address": "강원도 원주시 북원로 2807 (태장동)",
    "lat": "37.3941796",
    "lng": "127.9501474",
    "monthlyCapacity": "ㅇㅇ대",
    "currentIncoming": "ㅇㅇ대",
    "possibleIncoming": "ㅇㅇ대",
    "repairGeneral": "ⅹ",
    "repairAccident": "○",
    "pointHyundai": "-",
    "pointKia": "-",
    "notes": "(상용겸용)",
    "registerDate": 20250701
  },
  {
    "name": "효성카독크",
    "grade": "2급",
    "priority": 1,
    "HCS": "Y",
    "phone": "0332570554",
    "address": "강원도 춘천시 춘천로56번길 19-1 (효자동)",
    "lat": "37.8686260",
    "lng": "127.7260522",
    "monthlyCapacity": "ㅇㅇ대",
    "currentIncoming": "ㅇㅇ대",
    "possibleIncoming": "ㅇㅇ대",
    "repairGeneral": "ⅹ",
    "repairAccident": "○",
    "pointHyundai": "-",
    "pointKia": "-",
    "notes": "",
    "registerDate": 20250701
  },
  {
    "name": "강원21세기공업사",
    "grade": "2급",
    "priority": 1,
    "HCS": "Y",
    "phone": "0335543315",
    "address": "강원도 태백시 동태백로 1147 (통동)",
    "lat": "37.1654389",
    "lng": "129.0312874",
    "monthlyCapacity": "ㅇㅇ대",
    "currentIncoming": "ㅇㅇ대",
    "possibleIncoming": "ㅇㅇ대",
    "repairGeneral": "ⅹ",
    "repairAccident": "○",
    "pointHyundai": "-",
    "pointKia": "-",
    "notes": "",
    "registerDate": 20250701
  },
  {
    "name": "성운종합정비",
    "grade": "2급",
    "priority": 1,
    "HCS": "Y",
    "phone": "0542618900",
    "address": "경북 포항시 북구 아치로 159 ()",
    "lat": "36.0576124",
    "lng": "129.3483710",
    "monthlyCapacity": "ㅇㅇ대",
    "currentIncoming": "ㅇㅇ대",
    "possibleIncoming": "ㅇㅇ대",
    "repairGeneral": "ⅹ",
    "repairAccident": "○",
    "pointHyundai": "-",
    "pointKia": "-",
    "notes": "",
    "registerDate": 20250701
  },
  {
    "name": "(주)세창종합정비",
    "grade": "1급",
    "priority": 1,
    "HCS": "Y",
    "phone": "0556373710",
    "address": "경상남도 거제시 송정5길 112-7 (연초면)",
    "lat": "34.9063277",
    "lng": "128.6800581",
    "monthlyCapacity": "ㅇㅇ대",
    "currentIncoming": "ㅇㅇ대",
    "possibleIncoming": "ㅇㅇ대",
    "repairGeneral": "ⅹ",
    "repairAccident": "○",
    "pointHyundai": "-",
    "pointKia": "-",
    "notes": "",
    "registerDate": 20250701
  },
  {
    "name": "한국지엠거제서비스센타",
    "grade": "1급",
    "priority": 2,
    "HCS": "Y",
    "phone": "0556877133",
    "address": "경상남도 거제시 연하해안로 206 (연초면)",
    "lat": "34.8988261",
    "lng": "128.6306785",
    "monthlyCapacity": "ㅇㅇ대",
    "currentIncoming": "ㅇㅇ대",
    "possibleIncoming": "ㅇㅇ대",
    "repairGeneral": "ⅹ",
    "repairAccident": "○",
    "pointHyundai": "-",
    "pointKia": "-",
    "notes": "",
    "registerDate": 20250701
  },
  {
    "name": "신장유자동차종합정비",
    "grade": "1급",
    "priority": 1,
    "HCS": "Y",
    "phone": "0553137000",
    "address": "경상남도 김해시 장유로115번길 1 (부곡동)",
    "lat": "35.2115533",
    "lng": "128.8009044",
    "monthlyCapacity": "ㅇㅇ대",
    "currentIncoming": "ㅇㅇ대",
    "possibleIncoming": "ㅇㅇ대",
    "repairGeneral": "ⅹ",
    "repairAccident": "○",
    "pointHyundai": "-",
    "pointKia": "-",
    "notes": "",
    "registerDate": 20250701
  },
  {
    "name": "동성엔대림종합정비",
    "grade": "1급",
    "priority": 1,
    "HCS": "Y",
    "phone": "0558522100",
    "address": "경상남도 사천시 항공로 54 (사천읍, 동성1급정비)",
    "lat": "35.0809659",
    "lng": "128.0770864",
    "monthlyCapacity": "ㅇㅇ대",
    "currentIncoming": "ㅇㅇ대",
    "possibleIncoming": "ㅇㅇ대",
    "repairGeneral": "ⅹ",
    "repairAccident": "○",
    "pointHyundai": "-",
    "pointKia": "-",
    "notes": "",
    "registerDate": 20250701
  },
  {
    "name": "스마트종합정비",
    "grade": "1급",
    "priority": 1,
    "HCS": "Y",
    "phone": "0557811001",
    "address": "경상남도 양산시 북정공단1길 63 (북정동, 미성강업)",
    "lat": "35.3664459",
    "lng": "129.0442830",
    "monthlyCapacity": "ㅇㅇ대",
    "currentIncoming": "ㅇㅇ대",
    "possibleIncoming": "ㅇㅇ대",
    "repairGeneral": "ⅹ",
    "repairAccident": "○",
    "pointHyundai": "-",
    "pointKia": "-",
    "notes": "",
    "registerDate": 20250701
  },
  {
    "name": "대운자동차정비공업사",
    "grade": "1급",
    "priority": 1,
    "HCS": "Y",
    "phone": "0557558828",
    "address": "경상남도 진주시 대신로115번길 12 (상평동)",
    "lat": "35.1708500",
    "lng": "128.1169229",
    "monthlyCapacity": "ㅇㅇ대",
    "currentIncoming": "ㅇㅇ대",
    "possibleIncoming": "ㅇㅇ대",
    "repairGeneral": "ⅹ",
    "repairAccident": "○",
    "pointHyundai": "-",
    "pointKia": "-",
    "notes": "",
    "registerDate": 20250701
  },
  {
    "name": "대한정비",
    "grade": "2급",
    "priority": 1,
    "HCS": "Y",
    "phone": "0552650821",
    "address": "경상남도 창원시 의창구 차상로8번길 64 (팔용동)",
    "lat": "35.2297145",
    "lng": "128.6400878",
    "monthlyCapacity": "ㅇㅇ대",
    "currentIncoming": "ㅇㅇ대",
    "possibleIncoming": "ㅇㅇ대",
    "repairGeneral": "ⅹ",
    "repairAccident": "○",
    "pointHyundai": "-",
    "pointKia": "-",
    "notes": "",
    "registerDate": 20250701
  },
  {
    "name": "좋은정비",
    "grade": "2급",
    "priority": 1,
    "HCS": "Y",
    "phone": "0556488872",
    "address": "경상남도 통영시 춘원2로 49-45 (광도면)",
    "lat": "34.9560945",
    "lng": "128.4120853",
    "monthlyCapacity": "ㅇㅇ대",
    "currentIncoming": "ㅇㅇ대",
    "possibleIncoming": "ㅇㅇ대",
    "repairGeneral": "ⅹ",
    "repairAccident": "○",
    "pointHyundai": "-",
    "pointKia": "-",
    "notes": "",
    "registerDate": 20250701
  },
  {
    "name": "우신종합자동차정비",
    "grade": "1급",
    "priority": 1,
    "HCS": "Y",
    "phone": "0547487000",
    "address": "경상북도 경주시 외외1길 166 (충효동)",
    "lat": "35.8337787",
    "lng": "129.1628909",
    "monthlyCapacity": "ㅇㅇ대",
    "currentIncoming": "ㅇㅇ대",
    "possibleIncoming": "ㅇㅇ대",
    "repairGeneral": "ⅹ",
    "repairAccident": "○",
    "pointHyundai": "-",
    "pointKia": "-",
    "notes": "(덴트가능)",
    "registerDate": 20250701
  },
  {
    "name": "제일정비공장(구미)",
    "grade": "1급",
    "priority": 1,
    "HCS": "Y",
    "phone": "0544623000",
    "address": "경상북도 구미시 화신로8길 4-23 (광평동)",
    "lat": "36.1132051",
    "lng": "128.3581490",
    "monthlyCapacity": "ㅇㅇ대",
    "currentIncoming": "ㅇㅇ대",
    "possibleIncoming": "ㅇㅇ대",
    "repairGeneral": "ⅹ",
    "repairAccident": "○",
    "pointHyundai": "-",
    "pointKia": "-",
    "notes": "",
    "registerDate": 20250701
  },
  {
    "name": "삼성자동차정비",
    "grade": "1급",
    "priority": 1,
    "HCS": "Y",
    "phone": "0544378282",
    "address": "경상북도 김천시 백옥1길 5 (백옥동)",
    "lat": "36.1246342",
    "lng": "128.0821653",
    "monthlyCapacity": "ㅇㅇ대",
    "currentIncoming": "ㅇㅇ대",
    "possibleIncoming": "ㅇㅇ대",
    "repairGeneral": "ⅹ",
    "repairAccident": "○",
    "pointHyundai": "-",
    "pointKia": "-",
    "notes": "",
    "registerDate": 20250701
  },
  {
    "name": "성광자동차정비공장",
    "grade": "1급",
    "priority": 1,
    "HCS": "Y",
    "phone": "0548213800",
    "address": "경상북도 안동시 경동로 958 (용상동)",
    "lat": "36.5542421",
    "lng": "128.7582376",
    "monthlyCapacity": "ㅇㅇ대",
    "currentIncoming": "ㅇㅇ대",
    "possibleIncoming": "ㅇㅇ대",
    "repairGeneral": "ⅹ",
    "repairAccident": "○",
    "pointHyundai": "-",
    "pointKia": "-",
    "notes": "",
    "registerDate": 20250701
  },
  {
    "name": "제일정비공장(영주)",
    "grade": "2급",
    "priority": 1,
    "HCS": "Y",
    "phone": "0546339700",
    "address": "경상북도 영주시 의상로 136 (상망동)",
    "lat": "36.8483368",
    "lng": "128.6393793",
    "monthlyCapacity": "ㅇㅇ대",
    "currentIncoming": "ㅇㅇ대",
    "possibleIncoming": "ㅇㅇ대",
    "repairGeneral": "ⅹ",
    "repairAccident": "○",
    "pointHyundai": "-",
    "pointKia": "-",
    "notes": "",
    "registerDate": 20250701
  },
  {
    "name": "스마일카관리서비스",
    "grade": "1급",
    "priority": 2,
    "HCS": "Y",
    "phone": "0629511078",
    "address": "광주 광산구 북문대로 629-15 ()",
    "lat": "35.2074007",
    "lng": "126.8320266",
    "monthlyCapacity": "ㅇㅇ대",
    "currentIncoming": "ㅇㅇ대",
    "possibleIncoming": "ㅇㅇ대",
    "repairGeneral": "ⅹ",
    "repairAccident": "○",
    "pointHyundai": "-",
    "pointKia": "-",
    "notes": "",
    "registerDate": 20250701
  },
  {
    "name": "한결자동차서비스",
    "grade": "1급",
    "priority": 2,
    "HCS": "Y",
    "phone": "0622344930",
    "address": "광주 동구 소태길 76 ((유)한결자동차서비스)",
    "lat": "35.1206388",
    "lng": "126.9406839",
    "monthlyCapacity": "ㅇㅇ대",
    "currentIncoming": "ㅇㅇ대",
    "possibleIncoming": "ㅇㅇ대",
    "repairGeneral": "ⅹ",
    "repairAccident": "○",
    "pointHyundai": "-",
    "pointKia": "-",
    "notes": "",
    "registerDate": 20250701
  },
  {
    "name": "진왕자동차공업사",
    "grade": "1급",
    "priority": 1,
    "HCS": "Y",
    "phone": "0629439300",
    "address": "광주광역시 광산구 소촌로152번길 53-20 (소촌동)",
    "lat": "35.1577184",
    "lng": "126.7983492",
    "monthlyCapacity": "ㅇㅇ대",
    "currentIncoming": "ㅇㅇ대",
    "possibleIncoming": "ㅇㅇ대",
    "repairGeneral": "ⅹ",
    "repairAccident": "○",
    "pointHyundai": "-",
    "pointKia": "-",
    "notes": "",
    "registerDate": 20250701
  },
  {
    "name": "남대구서비스",
    "grade": "1급",
    "priority": 2,
    "HCS": "Y",
    "phone": "0535848585",
    "address": "대구광역시 달서구 성서공단로61길 12 (장동)",
    "lat": "35.8370121",
    "lng": "128.5171622",
    "monthlyCapacity": "ㅇㅇ대",
    "currentIncoming": "ㅇㅇ대",
    "possibleIncoming": "ㅇㅇ대",
    "repairGeneral": "ⅹ",
    "repairAccident": "○",
    "pointHyundai": "-",
    "pointKia": "-",
    "notes": "",
    "registerDate": 20250701
  },
  {
    "name": "하나정비",
    "grade": "1급",
    "priority": 2,
    "HCS": "Y",
    "phone": "0539641177",
    "address": "대구광역시 동구 안심로55길 25 (동호동)",
    "lat": "35.8683320",
    "lng": "128.7156170",
    "monthlyCapacity": "ㅇㅇ대",
    "currentIncoming": "ㅇㅇ대",
    "possibleIncoming": "ㅇㅇ대",
    "repairGeneral": "ⅹ",
    "repairAccident": "○",
    "pointHyundai": "-",
    "pointKia": "-",
    "notes": "",
    "registerDate": 20250701
  },
  {
    "name": "원모터스",
    "grade": "2급",
    "priority": 1,
    "HCS": "Y",
    "phone": "0535526789",
    "address": "대구광역시 서구 국채보상로14길 29-15 (중리동)",
    "lat": "35.8661931",
    "lng": "128.5403669",
    "monthlyCapacity": "ㅇㅇ대",
    "currentIncoming": "ㅇㅇ대",
    "possibleIncoming": "ㅇㅇ대",
    "repairGeneral": "ⅹ",
    "repairAccident": "○",
    "pointHyundai": "-",
    "pointKia": "-",
    "notes": "",
    "registerDate": 20250701
  },
  {
    "name": "중문공업사",
    "grade": "1급",
    "priority": 1,
    "HCS": "Y",
    "phone": "0426337778",
    "address": "대전광역시 대덕구 대화로119번길 17 (대화동)",
    "lat": "36.3653926",
    "lng": "127.4068479",
    "monthlyCapacity": "ㅇㅇ대",
    "currentIncoming": "ㅇㅇ대",
    "possibleIncoming": "ㅇㅇ대",
    "repairGeneral": "ⅹ",
    "repairAccident": "○",
    "pointHyundai": "-",
    "pointKia": "-",
    "notes": "",
    "registerDate": 20250701
  },
  {
    "name": "신기림종합정비공장",
    "grade": "2급",
    "priority": 2,
    "HCS": "Y",
    "phone": "0517834005",
    "address": "부산광역시 금정구 공단서로18번길 76 (금사동)",
    "lat": "35.2169317",
    "lng": "129.1144883",
    "monthlyCapacity": "ㅇㅇ대",
    "currentIncoming": "ㅇㅇ대",
    "possibleIncoming": "ㅇㅇ대",
    "repairGeneral": "ⅹ",
    "repairAccident": "○",
    "pointHyundai": "-",
    "pointKia": "-",
    "notes": "",
    "registerDate": 20250701
  },
  {
    "name": "(주)그린오토정비",
    "grade": "1급",
    "priority": 2,
    "HCS": "Y",
    "phone": "0513015201",
    "address": "부산광역시 사상구 낙동대로1048번길 52 (감전동)",
    "lat": "35.1530197",
    "lng": "128.9757578",
    "monthlyCapacity": "ㅇㅇ대",
    "currentIncoming": "ㅇㅇ대",
    "possibleIncoming": "ㅇㅇ대",
    "repairGeneral": "ⅹ",
    "repairAccident": "○",
    "pointHyundai": "-",
    "pointKia": "-",
    "notes": "",
    "registerDate": 20250701
  },
  {
    "name": "태원정비",
    "grade": "1급",
    "priority": 1,
    "HCS": "Y",
    "phone": "0518632707",
    "address": "부산광역시 연제구 거제대로 182 (거제동)",
    "lat": "35.1845720",
    "lng": "129.0712872",
    "monthlyCapacity": "ㅇㅇ대",
    "currentIncoming": "ㅇㅇ대",
    "possibleIncoming": "ㅇㅇ대",
    "repairGeneral": "ⅹ",
    "repairAccident": "○",
    "pointHyundai": "-",
    "pointKia": "-",
    "notes": "",
    "registerDate": 20250701
  },
  {
    "name": "씨엘티앤알(씨엘정비공장)",
    "grade": "1급",
    "priority": 1,
    "HCS": "Y",
    "phone": "0522673730",
    "address": "울산광역시 남구 처용로 40 (여천동)",
    "lat": "35.5143321",
    "lng": "129.3417282",
    "monthlyCapacity": "ㅇㅇ대",
    "currentIncoming": "ㅇㅇ대",
    "possibleIncoming": "ㅇㅇ대",
    "repairGeneral": "ⅹ",
    "repairAccident": "○",
    "pointHyundai": "-",
    "pointKia": "-",
    "notes": "(쿠팡전용)(상용겸용)",
    "registerDate": 20250701
  },
  {
    "name": "동광양자동차공업사",
    "grade": "1급",
    "priority": 1,
    "HCS": "Y",
    "phone": "0617939552",
    "address": "전남 광양시 느지매기길 105 ()",
    "lat": "34.9557504",
    "lng": "127.6767489",
    "monthlyCapacity": "ㅇㅇ대",
    "currentIncoming": "ㅇㅇ대",
    "possibleIncoming": "ㅇㅇ대",
    "repairGeneral": "ⅹ",
    "repairAccident": "○",
    "pointHyundai": "-",
    "pointKia": "-",
    "notes": "",
    "registerDate": 20250701
  },
  {
    "name": "일급혁신자동차",
    "grade": "1급",
    "priority": 1,
    "HCS": "Y",
    "phone": "0613324300",
    "address": "전라남도 나주시 교원교촌길 22-3 (남평읍, 1급자동차정비소)",
    "lat": "35.0350465",
    "lng": "126.8382934",
    "monthlyCapacity": "ㅇㅇ대",
    "currentIncoming": "ㅇㅇ대",
    "possibleIncoming": "ㅇㅇ대",
    "repairGeneral": "ⅹ",
    "repairAccident": "○",
    "pointHyundai": "-",
    "pointKia": "-",
    "notes": "",
    "registerDate": 20250701
  },
  {
    "name": "광일자동차서비스",
    "grade": "1급",
    "priority": 1,
    "HCS": "Y",
    "phone": "0612790114",
    "address": "전라남도 목포시 고하대로 863 (연산동)",
    "lat": "34.8206962",
    "lng": "126.3840565",
    "monthlyCapacity": "ㅇㅇ대",
    "currentIncoming": "ㅇㅇ대",
    "possibleIncoming": "ㅇㅇ대",
    "repairGeneral": "ⅹ",
    "repairAccident": "○",
    "pointHyundai": "-",
    "pointKia": "-",
    "notes": "(상용겸용)",
    "registerDate": 20250701
  },
  {
    "name": "봉화자동차1급공업사",
    "grade": "1급",
    "priority": 1,
    "HCS": "Y",
    "phone": "0617262646",
    "address": "전라남도 순천시 율촌산단4로 77-53 (해룡면)",
    "lat": "34.9022369",
    "lng": "127.5868963",
    "monthlyCapacity": "ㅇㅇ대",
    "currentIncoming": "ㅇㅇ대",
    "possibleIncoming": "ㅇㅇ대",
    "repairGeneral": "ⅹ",
    "repairAccident": "○",
    "pointHyundai": "-",
    "pointKia": "-",
    "notes": "",
    "registerDate": 20250701
  },
  {
    "name": "(유)그린웨이자동차공업사",
    "grade": "1급",
    "priority": 1,
    "HCS": "Y",
    "phone": "0616828113",
    "address": "전라남도 여수시 봉계4길 7 (봉계동)",
    "lat": "34.7846033",
    "lng": "127.6640070",
    "monthlyCapacity": "ㅇㅇ대",
    "currentIncoming": "ㅇㅇ대",
    "possibleIncoming": "ㅇㅇ대",
    "repairGeneral": "ⅹ",
    "repairAccident": "○",
    "pointHyundai": "-",
    "pointKia": "-",
    "notes": "",
    "registerDate": 20250701
  },
  {
    "name": "제일자동차공업사",
    "grade": "1급",
    "priority": 1,
    "HCS": "Y",
    "phone": "0635810101",
    "address": "전라북도 부안군 행안중앙로 8 (행안면, 제일자동차공업사)",
    "lat": "35.7125043",
    "lng": "126.7124467",
    "monthlyCapacity": "ㅇㅇ대",
    "currentIncoming": "ㅇㅇ대",
    "possibleIncoming": "ㅇㅇ대",
    "repairGeneral": "ⅹ",
    "repairAccident": "○",
    "pointHyundai": "-",
    "pointKia": "-",
    "notes": "",
    "registerDate": 20250701
  },
  {
    "name": "1급제일자동차공업사",
    "grade": "1급",
    "priority": 1,
    "HCS": "Y",
    "phone": "0634424977",
    "address": "전라북도 군산시 십자다리길 65",
    "lat": 35.9704743,
    "lng": 126.660488,
    "monthlyCapacity": "ㅇㅇ대",
    "currentIncoming": "ㅇㅇ대",
    "possibleIncoming": "ㅇㅇ대",
    "repairGeneral": "ⅹ",
    "repairAccident": "○",
    "pointHyundai": "-",
    "pointKia": "-",
    "notes": "-",
    "registerDate": 20250701
  },
  {
    "name": "평화자동차공업사(주)",
    "grade": "1급",
    "priority": 1,
    "HCS": "Y",
    "phone": "0632112242",
    "address": "전라북도 전주시 덕진구 추천로 47-24 (팔복동3가)",
    "lat": "35.8437150",
    "lng": "127.0996999",
    "monthlyCapacity": "ㅇㅇ대",
    "currentIncoming": "ㅇㅇ대",
    "possibleIncoming": "ㅇㅇ대",
    "repairGeneral": "ⅹ",
    "repairAccident": "○",
    "pointHyundai": "-",
    "pointKia": "-",
    "notes": "",
    "registerDate": 20250701
  },
  {
    "name": "삼원자동차공업사",
    "grade": "1급",
    "priority": 1,
    "HCS": "Y",
    "phone": "0647940500",
    "address": "제주특별자치도 서귀포시 상모대서로 68 (대정읍)",
    "lat": "33.2280845",
    "lng": "126.2603511",
    "monthlyCapacity": "ㅇㅇ대",
    "currentIncoming": "ㅇㅇ대",
    "possibleIncoming": "ㅇㅇ대",
    "repairGeneral": "ⅹ",
    "repairAccident": "○",
    "pointHyundai": "-",
    "pointKia": "-",
    "notes": "",
    "registerDate": 20250701
  },
  {
    "name": "부강자동차공업사",
    "grade": "1급",
    "priority": 1,
    "HCS": "Y",
    "phone": "0647820404",
    "address": "제주특별자치도 서귀포시 서성일로 904 (성산읍)",
    "lat": "33.4389165",
    "lng": "126.8762994",
    "monthlyCapacity": "ㅇㅇ대",
    "currentIncoming": "ㅇㅇ대",
    "possibleIncoming": "ㅇㅇ대",
    "repairGeneral": "ⅹ",
    "repairAccident": "○",
    "pointHyundai": "-",
    "pointKia": "-",
    "notes": "",
    "registerDate": 20250701
  },
  {
    "name": "자일제주서비스(주)",
    "grade": "1급",
    "priority": 1,
    "HCS": "Y",
    "phone": "0647569400",
    "address": "제주특별자치도 제주시 선반남2길 63 (화북일동)",
    "lat": "33.5128761",
    "lng": "126.5663550",
    "monthlyCapacity": "ㅇㅇ대",
    "currentIncoming": "ㅇㅇ대",
    "possibleIncoming": "ㅇㅇ대",
    "repairGeneral": "ⅹ",
    "repairAccident": "○",
    "pointHyundai": "-",
    "pointKia": "-",
    "notes": "",
    "registerDate": 20250701
  },
  {
    "name": "공주종합모터스",
    "grade": "1급",
    "priority": 1,
    "HCS": "Y",
    "phone": "0418584293",
    "address": "충청남도 공주시 장척로 30 (송선동)",
    "lat": "36.4838713",
    "lng": "127.1694964",
    "monthlyCapacity": "ㅇㅇ대",
    "currentIncoming": "ㅇㅇ대",
    "possibleIncoming": "ㅇㅇ대",
    "repairGeneral": "ⅹ",
    "repairAccident": "○",
    "pointHyundai": "-",
    "pointKia": "-",
    "notes": "",
    "registerDate": 20250701
  },
  {
    "name": "현대오토종합정비",
    "grade": "1급",
    "priority": 1,
    "HCS": "Y",
    "phone": "0413630298",
    "address": "충청남도 당진시 남부로 61 (채운동, 현대오토)",
    "lat": "36.8845897",
    "lng": "126.6229675",
    "monthlyCapacity": "ㅇㅇ대",
    "currentIncoming": "ㅇㅇ대",
    "possibleIncoming": "ㅇㅇ대",
    "repairGeneral": "ⅹ",
    "repairAccident": "○",
    "pointHyundai": "-",
    "pointKia": "-",
    "notes": "",
    "registerDate": 20250701
  },
  {
    "name": "(주)아름다운자동차공업사",
    "grade": "1급",
    "priority": 1,
    "HCS": "Y",
    "phone": "0415489430",
    "address": "충청남도 아산시 모산로 30 (배방읍)",
    "lat": "36.7720988",
    "lng": "127.0462128",
    "monthlyCapacity": "ㅇㅇ대",
    "currentIncoming": "ㅇㅇ대",
    "possibleIncoming": "ㅇㅇ대",
    "repairGeneral": "ⅹ",
    "repairAccident": "○",
    "pointHyundai": "-",
    "pointKia": "-",
    "notes": "",
    "registerDate": 20250701
  },
  {
    "name": "에이젠모터스",
    "grade": "2급",
    "priority": 1,
    "HCS": "Y",
    "phone": "0415644950",
    "address": "충청남도 천안시 서북구 소댕이3길 9 (성거읍)",
    "lat": "36.8712300",
    "lng": "127.1967713",
    "monthlyCapacity": "ㅇㅇ대",
    "currentIncoming": "ㅇㅇ대",
    "possibleIncoming": "ㅇㅇ대",
    "repairGeneral": "ⅹ",
    "repairAccident": "○",
    "pointHyundai": "-",
    "pointKia": "-",
    "notes": "",
    "registerDate": 20250701
  },
  {
    "name": "(주)오토월드자동차",
    "grade": "1급",
    "priority": 1,
    "HCS": "Y",
    "phone": "0438830909",
    "address": "충청북도 음성군 대금로 672 (대소면)",
    "lat": "36.9713384",
    "lng": "127.5114206",
    "monthlyCapacity": "ㅇㅇ대",
    "currentIncoming": "ㅇㅇ대",
    "possibleIncoming": "ㅇㅇ대",
    "repairGeneral": "ⅹ",
    "repairAccident": "○",
    "pointHyundai": "-",
    "pointKia": "-",
    "notes": "",
    "registerDate": 20250701
  },
  {
    "name": "주식회사일급서울정비공업사",
    "grade": "1급",
    "priority": 1,
    "HCS": "Y",
    "phone": "0432351901",
    "address": "충청북도 청주시 서원구 양촌4길 5 (남이면)",
    "lat": "36.5934916",
    "lng": "127.4751865",
    "monthlyCapacity": "ㅇㅇ대",
    "currentIncoming": "ㅇㅇ대",
    "possibleIncoming": "ㅇㅇ대",
    "repairGeneral": "ⅹ",
    "repairAccident": "○",
    "pointHyundai": "-",
    "pointKia": "-",
    "notes": "(상용겸용)",
    "registerDate": 20250701
  },
  {
    "name": "1급오창호수모터스",
    "grade": "1급",
    "priority": 1,
    "HCS": "Y",
    "phone": "0432412410",
    "address": "충청북도 청주시 청원구 각리가곡로 459 (오창읍)",
    "lat": "36.7057409",
    "lng": "127.4496907",
    "monthlyCapacity": "ㅇㅇ대",
    "currentIncoming": "ㅇㅇ대",
    "possibleIncoming": "ㅇㅇ대",
    "repairGeneral": "ⅹ",
    "repairAccident": "○",
    "pointHyundai": "-",
    "pointKia": "-",
    "notes": "",
    "registerDate": 20250701
  },
  {
    "name": "충주공업사",
    "grade": "1급",
    "priority": 1,
    "HCS": "Y",
    "phone": "0438566044",
    "address": "충청북도 충주시 중원대로 3752-1 (용두동)",
    "lat": "36.9620507",
    "lng": "127.8902081",
    "monthlyCapacity": "ㅇㅇ대",
    "currentIncoming": "ㅇㅇ대",
    "possibleIncoming": "ㅇㅇ대",
    "repairGeneral": "ⅹ",
    "repairAccident": "○",
    "pointHyundai": "-",
    "pointKia": "-",
    "notes": "",
    "registerDate": 20250701
  }
]