[
     {
    "name": "현대모터스",
    "grade": "1급",
    "priority": 1,
    "HCS": "Y",
    "phone": "010-4403-0040 (이범규)",
    "address": "대전 동구 옥천로96번길 92-32",
    "lat": 36.3149374,
    "lng": 127.452217,
    "monthlyCapacity": "ㅇㅇ대",
    "currentIncoming": "ㅇㅇ대",
    "possibleIncoming": "ㅇㅇ대",
    "repairGeneral": "ⅹ",
    "repairAccident": "○",
    "pointHyundai": "-",
    "pointKia": "-",
    "notes": "-",
    "registerDate": 20260206
  },
  {
    "name": "서대전현대서비스",
    "grade": "1급",
    "priority": 1,
    "HCS": "Y",
    "phone": "010-2489-8004 (차종근)",
    "address": "대전 서구 가수원로 103-13",
    "lat": 36.3030993,
    "lng": 127.348618,
    "monthlyCapacity": "ㅇㅇ대",
    "currentIncoming": "ㅇㅇ대",
    "possibleIncoming": "ㅇㅇ대",
    "repairGeneral": "ⅹ",
    "repairAccident": "○",
    "pointHyundai": "○",
    "pointKia": "-",
    "notes": "-",
    "registerDate": 20260206
  },
  {
    "name": "한국자동차공업사",
    "grade": "1급",
    "priority": 1,
    "HCS": "Y",
    "phone": "010-3466-9359 (한준호)",
    "address": "충북 청주시 흥덕구 공단로 104",
    "lat": 36.640979,
    "lng": 127.438432,
    "monthlyCapacity": "ㅇㅇ대",
    "currentIncoming": "ㅇㅇ대",
    "possibleIncoming": "ㅇㅇ대",
    "repairGeneral": "ⅹ",
    "repairAccident": "○",
    "pointHyundai": "-",
    "pointKia": "-",
    "notes": "-",
    "registerDate": 20260206
  },
    {
    "name": "영인모터스",
    "grade": "1급",
    "priority": 1,
    "HCS": "Y",
    "phone": "010-2263-0600(김병일)",
    "address": "인천 중구 백운로 345",
    "lat": 37.5054191,
    "lng": 126.520427,
    "monthlyCapacity": "ㅇㅇ대",
    "currentIncoming": "ㅇㅇ대",
    "possibleIncoming": "ㅇㅇ대",
    "repairGeneral": "ⅹ",
    "repairAccident": "○",
    "pointHyundai": "-",
    "pointKia": "-",
    "notes": "-",
    "registerDate": 20260129
  },
  {
    "name": "카오토플러스",
    "grade": "1급",
    "priority": 1,
    "HCS": "Y",
    "phone": "010-9190-6070(신정화)",
    "address": "인천 서구 석남로 29",
    "lat": 37.5014947,
    "lng": 126.664767,
    "monthlyCapacity": "ㅇㅇ대",
    "currentIncoming": "ㅇㅇ대",
    "possibleIncoming": "ㅇㅇ대",
    "repairGeneral": "ⅹ",
    "repairAccident": "○",
    "pointHyundai": "-",
    "pointKia": "-",
    "notes": "-",
    "registerDate": 20260129
  },
   {
    "name": "케이모터스(광주)",
    "grade": "1급",
    "priority": 1,
    "HCS": "Y",
    "phone": "010-5610-3366 (김희철)",
    "address": "광주 북구 하서로 652-11",
    "lat": 35.2310017,
    "lng": 126.887741,
    "monthlyCapacity": "ㅇㅇ대",
    "currentIncoming": "ㅇㅇ대",
    "possibleIncoming": "ㅇㅇ대",
    "repairGeneral": "ⅹ",
    "repairAccident": "○",
    "pointHyundai": "-",
    "pointKia": "-",
    "notes": "-",
    "registerDate": 20260121
  },
  {
    "name": "광진",
    "grade": "1급",
    "priority": 1,
    "HCS": "Y",
    "phone": "010-4142-0391 (백성민)",
    "address": "전북 익산시 목천로4길 29",
    "lat": 35.9281112,
    "lng": 126.948317,
    "monthlyCapacity": "ㅇㅇ대",
    "currentIncoming": "ㅇㅇ대",
    "possibleIncoming": "ㅇㅇ대",
    "repairGeneral": "ⅹ",
    "repairAccident": "○",
    "pointHyundai": "-",
    "pointKia": "-",
    "notes": "-",
    "registerDate": 20260121
  },
  {
    "name": "준모터스",
    "grade": "1급",
    "priority": 1,
    "HCS": "Y",
    "phone": "010-4567-9769 (김준성)",
    "address": "충남 아산시 음봉면 산동로 397",
    "lat": 36.8578736,
    "lng": 127.108764,
    "monthlyCapacity": "ㅇㅇ대",
    "currentIncoming": "ㅇㅇ대",
    "possibleIncoming": "ㅇㅇ대",
    "repairGeneral": "ⅹ",
    "repairAccident": "○",
    "pointHyundai": "-",
    "pointKia": "-",
    "notes": "-",
    "registerDate": 20260121
  },
  {
    "name": "성화모터스",
    "grade": "1급",
    "priority": 1,
    "HCS": "Y",
    "phone": "010-4545-0008 (강병현)",
    "address": "부산 사상구 학장로248번길 12",
    "lat": 35.1450918,
    "lng": 128.992977,
    "monthlyCapacity": "ㅇㅇ대",
    "currentIncoming": "ㅇㅇ대",
    "possibleIncoming": "ㅇㅇ대",
    "repairGeneral": "ⅹ",
    "repairAccident": "○",
    "pointHyundai": "-",
    "pointKia": "-",
    "notes": "-",
    "registerDate": 20260121
  },
  {
    "name": "카멘즈",
    "grade": "1급",
    "priority": 1,
    "HCS": "Y",
    "phone": "010-5098-8282 (홍민혁)",
    "address": "서울 성동구 연무장길 113",
    "lat": 37.5407198,
    "lng": 127.061703,
    "monthlyCapacity": "ㅇㅇ대",
    "currentIncoming": "ㅇㅇ대",
    "possibleIncoming": "ㅇㅇ대",
    "repairGeneral": "ⅹ",
    "repairAccident": "○",
    "pointHyundai": "-",
    "pointKia": "-",
    "notes": "-",
    "registerDate": 20260121
  },
  {
    "name": "JKMOTORS",
    "grade": "1급",
    "priority": 1,
    "HCS": "Y",
    "phone": "010-3552-8461 (박재연)",
    "address": "경기 남양주시 화도읍 폭포로 215",
    "lat": 37.6353232,
    "lng": 127.313201,
    "monthlyCapacity": "ㅇㅇ대",
    "currentIncoming": "ㅇㅇ대",
    "possibleIncoming": "ㅇㅇ대",
    "repairGeneral": "ⅹ",
    "repairAccident": "○",
    "pointHyundai": "-",
    "pointKia": "-",
    "notes": "-",
    "registerDate": 20260121
  },
  {
    "name": "화양정비",
    "grade": "1급",
    "priority": 1,
    "HCS": "Y",
    "phone": "010-4513-3405 (전준복)",
    "address": "경북 청도군 화양읍 청려로 1832-5",
    "lat": 35.650949,
    "lng": 128.718948,
    "monthlyCapacity": "ㅇㅇ대",
    "currentIncoming": "ㅇㅇ대",
    "possibleIncoming": "ㅇㅇ대",
    "repairGeneral": "ⅹ",
    "repairAccident": "○",
    "pointHyundai": "-",
    "pointKia": "-",
    "notes": "-",
    "registerDate": 20260121
  },
  {
    "name": "에스케이1급자동차공업사",
    "grade": "1급",
    "priority": 1,
    "HCS": "Y",
    "phone": "010-8989-0844 (신동일)",
    "address": "경기 파주시 조리읍 명봉산로 36",
    "lat": 37.7318848,
    "lng": 126.840036,
    "monthlyCapacity": "ㅇㅇ대",
    "currentIncoming": "ㅇㅇ대",
    "possibleIncoming": "ㅇㅇ대",
    "repairGeneral": "ⅹ",
    "repairAccident": "○",
    "pointHyundai": "-",
    "pointKia": "-",
    "notes": "-",
    "registerDate": 20260121
  },
  {
    "name": "대양산단1급자동차공업사",
    "grade": "1급",
    "priority": 1,
    "HCS": "Y",
    "phone": "010-3631-4420 (박형기)",
    "address": "전남 목포시 대양산단로56번길 12-10",
    "lat": 34.826237,
    "lng": 126.401276,
    "monthlyCapacity": "ㅇㅇ대",
    "currentIncoming": "ㅇㅇ대",
    "possibleIncoming": "ㅇㅇ대",
    "repairGeneral": "ⅹ",
    "repairAccident": "○",
    "pointHyundai": "-",
    "pointKia": "-",
    "notes": "-",
    "registerDate": 20260121
  },
  {
    "name": "양산중부현대서비스",
    "grade": "1급",
    "priority": 1,
    "HCS": "Y",
    "phone": "010-2753-0080 (윤강노)",
    "address": "경남 양산시 어실로 183",
    "lat": 35.3765193,
    "lng": 129.025936,
    "monthlyCapacity": "ㅇㅇ대",
    "currentIncoming": "ㅇㅇ대",
    "possibleIncoming": "ㅇㅇ대",
    "repairGeneral": "ⅹ",
    "repairAccident": "○",
    "pointHyundai": "-",
    "pointKia": "-",
    "notes": "-",
    "registerDate": 20260121
  },
  {
    "name": "한진모터스",
    "grade": "1급",
    "priority": 1,
    "HCS": "Y",
    "phone": "010-9036-0202 (정영재)",
    "address": "경기 광주시 이배재로 210",
    "lat": 37.4327342,
    "lng": 127.235606,
    "monthlyCapacity": "ㅇㅇ대",
    "currentIncoming": "ㅇㅇ대",
    "possibleIncoming": "ㅇㅇ대",
    "repairGeneral": "ⅹ",
    "repairAccident": "○",
    "pointHyundai": "-",
    "pointKia": "-",
    "notes": "-",
    "registerDate": 20260121
  },
  {
    "name": "구리현대자동차",
    "grade": "1급",
    "priority": 1,
    "HCS": "Y",
    "phone": "010-8280-4972 (최남규)",
    "address": "경기 구리시 아차산로 399",
    "lat": 37.5908225,
    "lng": 127.130676,
    "monthlyCapacity": "ㅇㅇ대",
    "currentIncoming": "1대",
    "possibleIncoming": "ㅇㅇ대",
    "repairGeneral": "ⅹ",
    "repairAccident": "○",
    "pointHyundai": "-",
    "pointKia": "-",
    "notes": "-",
    "registerDate": 20260114
  },
  {
    "name": "중앙자동차공업사(남원)",
    "grade": "1급",
    "priority": 1,
    "HCS": "Y",
    "phone": "010-8642-2586 (강금순)",
    "address": "전북 남원시 용정동 183",
    "lat": 35.4294905,
    "lng": 127.383712,
    "monthlyCapacity": "ㅇㅇ대",
    "currentIncoming": "ㅇㅇ대",
    "possibleIncoming": "ㅇㅇ대",
    "repairGeneral": "ⅹ",
    "repairAccident": "○",
    "pointHyundai": "-",
    "pointKia": "-",
    "notes": "-",
    "registerDate": 20260114
  },
  {
    "name": "원창자동차공업사",
    "grade": "1급",
    "priority": 1,
    "HCS": "Y",
    "phone": "010-3680-1194 (한성택)",
    "address": "전북 익산시 마한로 57",
    "lat": 35.964709,
    "lng": 126.970098,
    "monthlyCapacity": "ㅇㅇ대",
    "currentIncoming": "ㅇㅇ대",
    "possibleIncoming": "ㅇㅇ대",
    "repairGeneral": "ⅹ",
    "repairAccident": "○",
    "pointHyundai": "-",
    "pointKia": "-",
    "notes": "-",
    "registerDate": 20260114
  },
  {
    "name": "서전주서비스(기아)",
    "grade": "1급",
    "priority": 1,
    "HCS": "Y",
    "phone": "010-7923-7752 (오주영)",
    "address": "전북 전주시 덕진구 비석날로 131",
    "lat": 35.8624653,
    "lng": 127.084919,
    "monthlyCapacity": "ㅇㅇ대",
    "currentIncoming": "ㅇㅇ대",
    "possibleIncoming": "ㅇㅇ대",
    "repairGeneral": "ⅹ",
    "repairAccident": "○",
    "pointHyundai": "-",
    "pointKia": "-",
    "notes": "-",
    "registerDate": 20260114
  },
   {
    "name": "제일자동차정비",
    "grade": "1급",
    "priority": 1,
    "HCS": "Y",
    "phone": "010-6380-5062 (정선교)",
    "address": "강원특별자치도 동해시 강원남부로 4745",
    "lat": 37.4739144,
    "lng": 129.117782,
    "monthlyCapacity": "ㅇㅇ대",
    "currentIncoming": "ㅇㅇ대",
    "possibleIncoming": "ㅇㅇ대",
    "repairGeneral": "ⅹ",
    "repairAccident": "○",
    "pointHyundai": "-",
    "pointKia": "-",
    "notes": "-",
    "registerDate": 20260108
  },
  {
    "name": "삼척서비스 기아오토큐(기아)",
    "grade": "1급",
    "priority": 1,
    "HCS": "Y",
    "phone": "010-5375-1005 (박선목)",
    "address": "강원특별자치도 삼척시 동해대로 4303",
    "lat": 37.4569415,
    "lng": 129.163601,
    "monthlyCapacity": "ㅇㅇ대",
    "currentIncoming": "ㅇㅇ대",
    "possibleIncoming": "ㅇㅇ대",
    "repairGeneral": "ⅹ",
    "repairAccident": "○",
    "pointHyundai": "-",
    "pointKia": "○",
    "notes": "-",
    "registerDate": 20260108
  },
  {
    "name": "도봉동부현대서비스(현대)",
    "grade": "1급",
    "priority": 1,
    "HCS": "Y",
    "phone": "010-9460-9688 (이현호)",
    "address": "서울 도봉구 창동 224-15",
    "lat": 37.6605134,
    "lng": 127.044358,
    "monthlyCapacity": "ㅇㅇ대",
    "currentIncoming": "ㅇㅇ대",
    "possibleIncoming": "ㅇㅇ대",
    "repairGeneral": "ⅹ",
    "repairAccident": "○",
    "pointHyundai": "○",
    "pointKia": "-",
    "notes": "-",
    "registerDate": 20260108
  },
  {
    "name": "규석카독크 (현대)",
    "grade": "1급",
    "priority": 1,
    "HCS": "Y",
    "phone": "010-6297-7294 (김용욱)",
    "address": "서울 성동구 마조로 18길 2",
    "lat": 37.5647487,
    "lng": 127.041949,
    "monthlyCapacity": "ㅇㅇ대",
    "currentIncoming": "ㅇㅇ대",
    "possibleIncoming": "ㅇㅇ대",
    "repairGeneral": "ⅹ",
    "repairAccident": "입고중지-물량과다",
    "pointHyundai": "○",
    "pointKia": "-",
    "notes": "-",
    "registerDate": 20260108
  },
  {
    "name": "인천21세기자동차",
    "grade": "1급",
    "priority": 1,
    "HCS": "Y",
    "phone": "010-5117-6723 (이세라)",
    "address": "인천 미추홀구 석정로333번길 2 ",
    "lat": 37.468008,
    "lng": 126.672367,
    "monthlyCapacity": "ㅇㅇ대",
    "currentIncoming": "ㅇㅇ대",
    "possibleIncoming": "ㅇㅇ대",
    "repairGeneral": "ⅹ",
    "repairAccident": "○",
    "pointHyundai": "-",
    "pointKia": "-",
    "notes": "-",
    "registerDate": 20260108
  },
  {
    "name": "군산서비스기아오토큐(기아)",
    "grade": "1급",
    "priority": 1,
    "HCS": "Y",
    "phone": "010-6776-8845 (한성수)",
    "address": "전북 군산시 미성로 502-2",
    "lat": 35.9537995,
    "lng": 126.675956,
    "monthlyCapacity": "ㅇㅇ대",
    "currentIncoming": "ㅇㅇ대",
    "possibleIncoming": "ㅇㅇ대",
    "repairGeneral": "ⅹ",
    "repairAccident": "○",
    "pointHyundai": "-",
    "pointKia": "○",
    "notes": "-",
    "registerDate": 20260108
  },
  {
    "name": "에이스정비사업소",
    "grade": "1급",
    "priority": 1,
    "HCS": "Y",
    "phone": "010-7129-4048 (김정우)",
    "address": "경기 고양시 일산서구 경의로 832",
    "lat": 37.6918441,
    "lng": 126.759907,
    "monthlyCapacity": "ㅇㅇ대",
    "currentIncoming": "ㅇㅇ대",
    "possibleIncoming": "ㅇㅇ대",
    "repairGeneral": "ⅹ",
    "repairAccident": "○",
    "pointHyundai": "-",
    "pointKia": "-",
    "notes": "-",
    "registerDate": 20260108
  },
   {
    "name": "양재서비스 기아오토큐",
    "grade": "1급",
    "priority": 1,
    "HCS": "Y",
    "phone": "010-4210-9846 (김기현)",
    "address": "서울 서초구 남부순환로 342길 94",
    "lat": 37.4762387,
    "lng": 127.02795,
    "monthlyCapacity": "ㅇㅇ대",
    "currentIncoming": "ㅇㅇ대",
    "possibleIncoming": "ㅇㅇ대",
    "repairGeneral": "ⅹ",
    "repairAccident": "○",
    "pointHyundai": "-",
    "pointKia": "○",
    "notes": "-",
    "registerDate": 20260102
  },
  {
    "name": "진성부란자1급종합정비공장",
    "grade": "1급",
    "priority": 1,
    "HCS": "Y",
    "phone": "010-2244-7598 (김대산)",
    "address": "강원특별자치도 춘천시 동면 춘천순환로 357",
    "lat": 37.8733561,
    "lng": 127.767757,
    "monthlyCapacity": "ㅇㅇ대",
    "currentIncoming": "ㅇㅇ대",
    "possibleIncoming": "ㅇㅇ대",
    "repairGeneral": "ⅹ",
    "repairAccident": "○",
    "pointHyundai": "-",
    "pointKia": "-",
    "notes": "-",
    "registerDate": 20251223
  },
  {
    "name": "통진현대블루핸즈(현대)",
    "grade": "1급",
    "priority": 1,
    "HCS": "Y",
    "phone": "010-8950-1314 (정수열)",
    "address": "경기 김포시 통진읍 서암고정로 196",
    "lat": 37.7022319,
    "lng": 126.608922,
    "monthlyCapacity": "ㅇㅇ대",
    "currentIncoming": "ㅇㅇ대",
    "possibleIncoming": "ㅇㅇ대",
    "repairGeneral": "ⅹ",
    "repairAccident": "○",
    "pointHyundai": "○",
    "pointKia": "-",
    "notes": "-",
    "registerDate": 20251223
  },
  {
    "name": "별내현대서비스(현대)",
    "grade": "1급",
    "priority": 1,
    "HCS": "Y",
    "phone": "010-3187-3402 (이우석)",
    "address": "경기 남양주시 송산로 356",
    "lat": 37.6734746,
    "lng": 127.134095,
    "monthlyCapacity": "ㅇㅇ대",
    "currentIncoming": "ㅇㅇ대",
    "possibleIncoming": "ㅇㅇ대",
    "repairGeneral": "ⅹ",
    "repairAccident": "입고중지-물량과다",
    "pointHyundai": "○",
    "pointKia": "-",
    "notes": "-",
    "registerDate": 20251223
  },
  {
    "name": "양서서비스기아오토큐(기아)",
    "grade": "1급",
    "priority": 1,
    "HCS": "Y",
    "phone": "010-4077-1116 (김강철)",
    "address": "경기 양평군 양서면 두물머리길20번길 7",
    "lat": 37.5425351,
    "lng": 127.318403,
    "monthlyCapacity": "ㅇㅇ대",
    "currentIncoming": "ㅇㅇ대",
    "possibleIncoming": "ㅇㅇ대",
    "repairGeneral": "ⅹ",
    "repairAccident": "○",
    "pointHyundai": "-",
    "pointKia": "○",
    "notes": "-",
    "registerDate": 20251223
  },
  {
    "name": "서하남서비스기아오토큐(기아)",
    "grade": "1급",
    "priority": 1,
    "HCS": "Y",
    "phone": "010-9380-4227 (박준호)",
    "address": "경기도 하남시 초광산단동로 6",
    "lat": 37.5282854,
    "lng": 127.17263,
    "monthlyCapacity": "ㅇㅇ대",
    "currentIncoming": "ㅇㅇ대",
    "possibleIncoming": "ㅇㅇ대",
    "repairGeneral": "ⅹ",
    "repairAccident": "○",
    "pointHyundai": "-",
    "pointKia": "○",
    "notes": "-",
    "registerDate": 20251223
  },
  {
    "name": "마스터자동차정비",
    "grade": "1급",
    "priority": 1,
    "HCS": "Y",
    "phone": "010-4223-0611 (허영도)",
    "address": "경남 창원시 의창구 무역로503번길 5-8",
    "lat": 35.2245833,
    "lng": 128.634989,
    "monthlyCapacity": "ㅇㅇ대",
    "currentIncoming": "ㅇㅇ대",
    "possibleIncoming": "ㅇㅇ대",
    "repairGeneral": "ⅹ",
    "repairAccident": "○",
    "pointHyundai": "-",
    "pointKia": "-",
    "notes": "-",
    "registerDate": 20251223
  },
  {
    "name": "대한정비",
    "grade": "2급",
    "priority": 1,
    "HCS": "Y",
    "phone": "010-2927-3138 (이재열)",
    "address": "경남 창원시 의창구 차상로8번길 64",
    "lat": 35.2297144,
    "lng": 128.640089,
    "monthlyCapacity": "ㅇㅇ대",
    "currentIncoming": "ㅇㅇ대",
    "possibleIncoming": "ㅇㅇ대",
    "repairGeneral": "ⅹ",
    "repairAccident": "○",
    "pointHyundai": "-",
    "pointKia": "-",
    "notes": "-",
    "registerDate": 20251223
  },
  {
    "name": "삼일1급종합정비",
    "grade": "1급",
    "priority": 1,
    "HCS": "Y",
    "phone": "010-3533-1601 (정장화)",
    "address": "경북 상주시 아리랑고개1길 77",
    "lat": 36.4302001,
    "lng": 128.172159,
    "monthlyCapacity": "ㅇㅇ대",
    "currentIncoming": "ㅇㅇ대",
    "possibleIncoming": "ㅇㅇ대",
    "repairGeneral": "ⅹ",
    "repairAccident": "○",
    "pointHyundai": "-",
    "pointKia": "-",
    "notes": "-",
    "registerDate": 20251223
  },
  {
    "name": "제이에이모터스",
    "grade": "2급",
    "priority": 1,
    "HCS": "Y",
    "phone": "010-5796-6002 (김정언)",
    "address": "서울 강서구 공항대로59길61",
    "lat": 37.5543672,
    "lng": 126.862952,
    "monthlyCapacity": "ㅇㅇ대",
    "currentIncoming": "ㅇㅇ대",
    "possibleIncoming": "ㅇㅇ대",
    "repairGeneral": "ⅹ",
    "repairAccident": "o",
    "pointHyundai": "-",
    "pointKia": "-",
    "notes": "-",
    "registerDate": 20251223
  },
  {
    "name": "서울모터스",
    "grade": "1급",
    "priority": 1,
    "HCS": "Y",
    "phone": "010-4822-0844 (박광호)",
    "address": "서울 도봉구 창동 746-29",
    "lat": 37.6610815,
    "lng": 127.042964,
    "monthlyCapacity": "ㅇㅇ대",
    "currentIncoming": "ㅇㅇ대",
    "possibleIncoming": "ㅇㅇ대",
    "repairGeneral": "ⅹ",
    "repairAccident": "입고중지-물량과다",
    "pointHyundai": "-",
    "pointKia": "-",
    "notes": "-",
    "registerDate": 20251223
  },
  {
    "name": "태양종합정비",
    "grade": "2급",
    "priority": 1,
    "HCS": "Y",
    "phone": "010-3850-8626 (박문호)",
    "address": "울산광역시 남구 산업로585번길 24",
    "lat": 35.5334637,
    "lng": 129.347762,
    "monthlyCapacity": "ㅇㅇ대",
    "currentIncoming": "ㅇㅇ대",
    "possibleIncoming": "ㅇㅇ대",
    "repairGeneral": "ⅹ",
    "repairAccident": "○",
    "pointHyundai": "-",
    "pointKia": "-",
    "notes": "-",
    "registerDate": 20251223
  },
  {
    "name": "케이에스자동차공업사",
    "grade": "1급",
    "priority": 1,
    "HCS": "Y",
    "phone": "010-4368-2000 (김주현)",
    "address": "전북 전주시 덕진구 상리로 3",
    "lat": 35.8493572,
    "lng": 127.101831,
    "monthlyCapacity": "ㅇㅇ대",
    "currentIncoming": "ㅇㅇ대",
    "possibleIncoming": "ㅇㅇ대",
    "repairGeneral": "ⅹ",
    "repairAccident": "○",
    "pointHyundai": "-",
    "pointKia": "-",
    "notes": "-",
    "registerDate": 20251223
  },
  {
    "name": "오토엠플러스",
    "grade": "1급",
    "priority": 1,
    "HCS": "Y",
    "phone": "010-3999-8882 (강기동)",
    "address": "충남 서산시 덕지천로 254",
    "lat": 36.7583603,
    "lng": 126.471713,
    "monthlyCapacity": "ㅇㅇ대",
    "currentIncoming": "ㅇㅇ대",
    "possibleIncoming": "ㅇㅇ대",
    "repairGeneral": "ⅹ",
    "repairAccident": "○",
    "pointHyundai": "-",
    "pointKia": "-",
    "notes": "-",
    "registerDate": 20251223
  },
  {
    "name": "삼성모터스",
    "grade": "2급",
    "priority": 1,
    "HCS": "Y",
    "phone": "010-5452-7598 (현민주)",
    "address": "충남 천안시 동남구 충절로 472",
    "lat": 36.7801678,
    "lng": 127.173247,
    "monthlyCapacity": "ㅇㅇ대",
    "currentIncoming": "ㅇㅇ대",
    "possibleIncoming": "ㅇㅇ대",
    "repairGeneral": "ⅹ",
    "repairAccident": "○",
    "pointHyundai": "-",
    "pointKia": "-",
    "notes": "-",
    "registerDate": 20251223
  },
  {
    "name": "한도모터스",
    "grade": "1급",
    "priority": 1,
    "HCS": "Y",
    "phone": "010-5878-7100 (장현)",
    "address": "경기 화성시 향남읍 서봉로 246",
    "lat": "37.1079123",
    "lng": "126.926939",
    "monthlyCapacity": "ㅇㅇ대",
    "currentIncoming": "ㅇㅇ대",
    "possibleIncoming": "ㅇㅇ대",
    "repairGeneral": "ⅹ",
    "repairAccident": "○",
    "pointHyundai": "-",
    "pointKia": "-",
    "notes": "-",
    "registerDate": 20251222
  },
  {
    "name": "에이플러스모터스",
    "grade": "1급",
    "priority": 1,
    "HCS": "Y",
    "phone": "010-7727-7737 (오현민)",
    "address": "부산 금정구 공단로 49",
    "lat": "35.2184332",
    "lng": "129.112848",
    "monthlyCapacity": "ㅇㅇ대",
    "currentIncoming": "ㅇㅇ대",
    "possibleIncoming": "ㅇㅇ대",
    "repairGeneral": "ⅹ",
    "repairAccident": "○",
    "pointHyundai": "-",
    "pointKia": "○",
    "notes": "-",
    "registerDate": 20251110
  },
  {
    "name": "금빛종합모터스",
    "grade": "1급",
    "priority": 1,
    "HCS": "Y",
    "phone": "010-3174-1479 (정우현)",
    "address": "대전 대덕구 한밭대로1003번길 110",
    "lat": "36.3610372",
    "lng": "127.405487",
    "monthlyCapacity": "ㅇㅇ대",
    "currentIncoming": "ㅇㅇ대",
    "possibleIncoming": "ㅇㅇ대",
    "repairGeneral": "ⅹ",
    "repairAccident": "○",
    "pointHyundai": "-",
    "pointKia": "-",
    "notes": "-",
    "registerDate": 202511110
  },
  {
    "name": "유진모터스",
    "grade": "1급",
    "priority": 1,
    "HCS": "Y",
    "phone": "010-9776-8903 (박유진)",
    "address": "경기 파주시 탄현면 갈현로 39-1 ",
    "lat": "37.7728146",
    "lng": "126.719736",
    "monthlyCapacity": "ㅇㅇ대",
    "currentIncoming": "ㅇㅇ대",
    "possibleIncoming": "ㅇㅇ대",
    "repairGeneral": "ⅹ",
    "repairAccident": "○",
    "pointHyundai": "-",
    "pointKia": "-",
    "notes": "-",
    "registerDate": 202511110
  },
  {
    "name": "평내현대써비스",
    "grade": "1급",
    "priority": 1,
    "HCS": "Y",
    "phone": "010-8703-3033 (홍순봉)",
    "address": "경기 남양주시 경춘로 1319 ",
    "lat": "37.6513548",
    "lng": "127.238195",
    "monthlyCapacity": "ㅇㅇ대",
    "currentIncoming": "ㅇㅇ대",
    "possibleIncoming": "ㅇㅇ대",
    "repairGeneral": "ⅹ",
    "repairAccident": "○",
    "pointHyundai": "○",
    "pointKia": "-",
    "notes": "-",
    "registerDate": 202511110
  },
  {
    "name": "카텍모터스",
    "grade": "1급",
    "priority": 1,
    "HCS": "Y",
    "phone": "010-5393-6661 (김성호)",
    "address": "서울 성동구 아차산로11길 2 ",
    "lat": "37.5445",
    "lng": "127.0597",
    "monthlyCapacity": "ㅇㅇ대",
    "currentIncoming": "ㅇㅇ대",
    "possibleIncoming": "ㅇㅇ대",
    "repairGeneral": "ⅹ",
    "repairAccident": "○",
    "pointHyundai": "-",
    "pointKia": "-",
    "notes": "-",
    "registerDate": 20251013
  },
  {
    "name": "베스트포",
    "grade": "1급",
    "priority": 1,
    "HCS": "Y",
    "phone": "010-7581-9327 (김도영)",
    "address": "경기도 용인시 처인구 모현읍 백옥대로 2265 ",
    "lat": "37.3274595",
    "lng": "127.244497",
    "monthlyCapacity": "ㅇㅇ대",
    "currentIncoming": "ㅇㅇ대",
    "possibleIncoming": "ㅇㅇ대",
    "repairGeneral": "○",
    "repairAccident": "○",
    "pointHyundai": "-",
    "pointKia": "-",
    "notes": "-",
    "registerDate": 20250925
  },
  {
    "name": "롯데칠성음료신협양평분점",
    "grade": "1급",
    "priority": 1,
    "HCS": "Y",
    "phone": "0226330771 (김관득)",
    "address": "서울특별시 영등포구 양평로24길 33 ",
    "lat": "37.5406504",
    "lng": "126.894071",
    "monthlyCapacity": "ㅇㅇ대",
    "currentIncoming": "ㅇㅇ대",
    "possibleIncoming": "ㅇㅇ대",
    "repairGeneral": "ⅹ",
    "repairAccident": "○",
    "pointHyundai": "○",
    "pointKia": "-",
    "notes": "-",
    "registerDate": 20250911
  },
  {
    "name": "이즈모터스(권선점)",
    "grade": "1급",
    "priority": 1,
    "HCS": "Y",
    "phone": "010-5872-4972 (종경식)",
    "address": "경기 수원시 권선구 오목천로 56 ",
    "lat": "37.2396191",
    "lng": "126.9687613",
    "monthlyCapacity": "ㅇㅇ대",
    "currentIncoming": "ㅇㅇ대",
    "possibleIncoming": "ㅇㅇ대",
    "repairGeneral": "○",
    "repairAccident": "○",
    "pointHyundai": "-",
    "pointKia": "-",
    "notes": "-",
    "registerDate": 20250701
  },
  {
    "name": "이즈모터스(영통점)",
    "grade": "1급",
    "priority": 1,
    "HCS": "Y",
    "phone": "010-5872-4972 (종경식)",
    "address": "경기 수원시 영통구 영통로 295 (이즈모터스)",
    "lat": "37.2528162",
    "lng": "127.0608964",
    "monthlyCapacity": "ㅇㅇ대",
    "currentIncoming": "ㅇㅇ대",
    "possibleIncoming": "ㅇㅇ대",
    "repairGeneral": "○",
    "repairAccident": "○",
    "pointHyundai": "-",
    "pointKia": "-",
    "notes": "-",
    "registerDate": "20250801"
  },
  {
    "name": "울산현대상용서비스(현대)",
    "grade": "1급",
    "priority": 1,
    "HCS": "Y",
    "phone": "010-4815-4131 (하창우)",
    "address": "울산광역시 북구 산업로 1515 (신천동)",
    "lat": "35.6446199",
    "lng": "129.3422367",
    "monthlyCapacity": "ㅇㅇ대",
    "currentIncoming": "ㅇㅇ대",
    "possibleIncoming": "ㅇㅇ대",
    "repairGeneral": "○",
    "repairAccident": "○",
    "pointHyundai": "○",
    "pointKia": "-",
    "notes": "(상용겸용)",
    "registerDate": "-"
  },
  {
    "name": "카민랩",
    "grade": "2급",
    "priority": 1,
    "HCS": "Y",
    "phone": "010-2733-8484 (이천호)",
    "address": "경기 여주시 농산로 101 ()",
    "lat": "37.2509149",
    "lng": "127.6366669",
    "monthlyCapacity": "ㅇㅇ대",
    "currentIncoming": "ㅇㅇ대",
    "possibleIncoming": "ㅇㅇ대",
    "repairGeneral": "○",
    "repairAccident": "○",
    "pointHyundai": "-",
    "pointKia": "-",
    "notes": "-",
    "registerDate": 20250701
  },
  {
    "name": "원진자동차",
    "grade": "1급",
    "priority": 1,
    "HCS": "Y",
    "phone": "010-4026-9550 (신혁진)",
    "address": "경기도 고양시 일산동구 성현로 151 (성석동)",
    "lat": "37.7091164",
    "lng": "126.8026945",
    "monthlyCapacity": "ㅇㅇ대",
    "currentIncoming": "ㅇㅇ대",
    "possibleIncoming": "ㅇㅇ대",
    "repairGeneral": "ⅹ",
    "repairAccident": "○",
    "pointHyundai": "-",
    "pointKia": "-",
    "notes": "-",
    "registerDate": 20250701
  },
  {
    "name": "운산1급자동차정비공장",
    "grade": "1급",
    "priority": 1,
    "HCS": "Y",
    "phone": "010-3784-4100 (유세종)",
    "address": "경기도 광명시 구름산로 43 (하안동)",
    "lat": "37.4576958",
    "lng": "126.8778855",
    "monthlyCapacity": "ㅇㅇ대",
    "currentIncoming": "ㅇㅇ대",
    "possibleIncoming": "ㅇㅇ대",
    "repairGeneral": "ⅹ",
    "repairAccident": "○",
    "pointHyundai": "-",
    "pointKia": "-",
    "notes": "-",
    "registerDate": 20250701
  },
  {
    "name": "태재자동차공업사",
    "grade": "1급",
    "priority": 1,
    "HCS": "Y",
    "phone": "010-7166-1312 (정기식)",
    "address": "경기도 광주시 능평로 102 (오포읍)",
    "lat": "37.3498961",
    "lng": "127.1688409",
    "monthlyCapacity": "ㅇㅇ대",
    "currentIncoming": "ㅇㅇ대",
    "possibleIncoming": "ㅇㅇ대",
    "repairGeneral": "ⅹ",
    "repairAccident": "○",
    "pointHyundai": "-",
    "pointKia": "-",
    "notes": "-",
    "registerDate": 20250701
  },
  {
    "name": "넘버원팩토리",
    "grade": "2급",
    "priority": 1,
    "HCS": "Y",
    "phone": "010-4723-7235 (정기영)",
    "address": "서울특별시 성동구 뚝섬로15길 23-20 (성수동2가)",
    "lat": "37.5393056",
    "lng": "127.060967",
    "monthlyCapacity": "ㅇㅇ대",
    "currentIncoming": "ㅇㅇ대",
    "possibleIncoming": "ㅇㅇ대",
    "repairGeneral": "ⅹ",
    "repairAccident": "○",
    "pointHyundai": "-",
    "pointKia": "-",
    "notes": "차순위입고",
    "registerDate": "20250731"
  },
  {
    "name": "케이현대자동차공업사",
    "grade": "2급",
    "priority": 1,
    "HCS": "Y",
    "phone": "010-2984-4844 (위용훈)",
    "address": "경기도 남양주시 재재기로 40 (화도읍)",
    "lat": "37.6304532",
    "lng": "127.3019527",
    "monthlyCapacity": "ㅇㅇ대",
    "currentIncoming": "ㅇㅇ대",
    "possibleIncoming": "ㅇㅇ대",
    "repairGeneral": "○",
    "repairAccident": "○",
    "pointHyundai": "-",
    "pointKia": "-",
    "notes": "(상용겸용)",
    "registerDate": 20250701
  },
  {
    "name": "남부자동차서비스",
    "grade": "1급",
    "priority": 1,
    "HCS": "Y",
    "phone": "010-6587-7713 (김용열)",
    "address": "경기도 부천시 경인로138번길 9 (송내동)",
    "lat": "37.4837503",
    "lng": "126.7713587",
    "monthlyCapacity": "ㅇㅇ대",
    "currentIncoming": "ㅇㅇ대",
    "possibleIncoming": "ㅇㅇ대",
    "repairGeneral": "ⅹ",
    "repairAccident": "o",
    "pointHyundai": "-",
    "pointKia": "-",
    "notes": "-",
    "registerDate": 20250701
  },
  {
    "name": "에이더블유피",
    "grade": "2급",
    "priority": 1,
    "HCS": "Y",
    "phone": "010-5219-8874 (이은철)",
    "address": "경기 성남시 분당구 새마을로51번길 14",
    "lat": 37.3839716,
    "lng": 127.137693,
    "monthlyCapacity": "ㅇㅇ대",
    "currentIncoming": "ㅇㅇ대",
    "possibleIncoming": "ㅇㅇ대",
    "repairGeneral": "ⅹ",
    "repairAccident": "o",
    "pointHyundai": "-",
    "pointKia": "-",
    "notes": "-",
    "registerDate": 20250701
  },
  {
    "name": "케이제이광진모터스",
    "grade": "1급",
    "priority": 1,
    "HCS": "Y",
    "phone": "010-5276-4438 (김진)",
    "address": "서울 성동구 광나루로 320-20 (광진모터스)",
    "lat": "37.5475160",
    "lng": "127.0651365",
    "monthlyCapacity": "ㅇㅇ대",
    "currentIncoming": "ㅇㅇ대",
    "possibleIncoming": "ㅇㅇ대",
    "repairGeneral": "ⅹ",
    "repairAccident": "○",
    "pointHyundai": "-",
    "pointKia": "-",
    "notes": "-",
    "registerDate": "20250709"
  },
  {
    "name": "국제카독크",
    "grade": "1급",
    "priority": 1,
    "HCS": "Y",
    "phone": "010-5347-9991 (정해성)",
    "address": "경기도 시흥시 공단1대로260번길 6 (정왕동)",
    "lat": "37.3347225",
    "lng": "126.7287681",
    "monthlyCapacity": "ㅇㅇ대",
    "currentIncoming": "ㅇㅇ대",
    "possibleIncoming": "ㅇㅇ대",
    "repairGeneral": "ⅹ",
    "repairAccident": "○",
    "pointHyundai": "-",
    "pointKia": "-",
    "notes": "(유리입고금지)",
    "registerDate": 20250701
  },
  {
    "name": "형제자동차정비",
    "grade": "2급",
    "priority": 1,
    "HCS": "Y",
    "phone": " 031-405-5454 (전일표)",
    "address": "경기도 안산시 상록구 안산천서로6길 6 (월피동, 형제자동차정비)",
    "lat": "37.3380852",
    "lng": "126.8499001",
    "monthlyCapacity": "ㅇㅇ대",
    "currentIncoming": "ㅇㅇ대",
    "possibleIncoming": "ㅇㅇ대",
    "repairGeneral": "ⅹ",
    "repairAccident": "○",
    "pointHyundai": "-",
    "pointKia": "-",
    "notes": "-",
    "registerDate": 20250701
  },
  {
    "name": "JS모터스",
    "grade": "1급",
    "priority": 1,
    "HCS": "Y",
    "phone": "010-5513-1842 (엄종덕)",
    "address": "경기 안성시 보개면 내방상삼로 74-4",
    "lat": "37.0191164",
    "lng": "127.322160",
    "monthlyCapacity": "ㅇㅇ대",
    "currentIncoming": "ㅇㅇ대",
    "possibleIncoming": "ㅇㅇ대",
    "repairGeneral": "ⅹ",
    "repairAccident": "○",
    "pointHyundai": "-",
    "pointKia": "-",
    "notes": "-",
    "registerDate": 20250701
  },
  {
    "name": "오토맥스",
    "grade": "1급",
    "priority": 1,
    "HCS": "Y",
    "phone": "010-9472-4920 (이수정)",
    "address": "경기도 안양시 동안구 흥안대로439번길 67-1 (관양동)",
    "lat": "37.3927703",
    "lng": "126.9707131",
    "monthlyCapacity": "ㅇㅇ대",
    "currentIncoming": "ㅇㅇ대",
    "possibleIncoming": "ㅇㅇ대",
    "repairGeneral": "ⅹ",
    "repairAccident": "○",
    "pointHyundai": "-",
    "pointKia": "-",
    "notes": "-",
    "registerDate": 20250701
  },
  {
    "name": "1급정우자동차",
    "grade": "1급",
    "priority": 1,
    "HCS": "Y",
    "phone": "010-5500-8558 (김승복)",
    "address": "경기도 양주시 양주산성로 838-14 (백석읍)",
    "lat": "37.7932470",
    "lng": "126.9695112",
    "monthlyCapacity": "ㅇㅇ대",
    "currentIncoming": "ㅇㅇ대",
    "possibleIncoming": "ㅇㅇ대",
    "repairGeneral": "ⅹ",
    "repairAccident": "○",
    "pointHyundai": "-",
    "pointKia": "-",
    "notes": "-",
    "registerDate": 20250701
  },
  {
    "name": "티에이치모터스",
    "grade": "1급",
    "priority": 1,
    "HCS": "Y",
    "phone": "010-3559-1027 (안광원)",
    "address": "경기도 오산시 청학로 108 (궐동, 티에이치모터스)",
    "lat": "37.1584787",
    "lng": "127.0647336",
    "monthlyCapacity": "ㅇㅇ대",
    "currentIncoming": "ㅇㅇ대",
    "possibleIncoming": "ㅇㅇ대",
    "repairGeneral": "ⅹ",
    "repairAccident": "○",
    "pointHyundai": "-",
    "pointKia": "-",
    "notes": "-",
    "registerDate": 20250701
  },
  {
    "name": "태강자동차공업사",
    "grade": "2급",
    "priority": 1,
    "HCS": "Y",
    "phone": "010-2234-2346 (최재규)",
    "address": "경기도 용인시 처인구 중부대로 1585-1 (마평동, 태강자동차공업사)",
    "lat": "37.2335701",
    "lng": "127.2207175",
    "monthlyCapacity": "ㅇㅇ대",
    "currentIncoming": "ㅇㅇ대",
    "possibleIncoming": "ㅇㅇ대",
    "repairGeneral": "ⅹ",
    "repairAccident": "○",
    "pointHyundai": "-",
    "pointKia": "-",
    "notes": "(상용겸용)",
    "registerDate": 20250701
  },
  {
    "name": "한진자동차정비",
    "grade": "2급",
    "priority": 1,
    "HCS": "Y",
    "phone": "010-4063-0474 (박현준)",
    "address": "경기도 의왕시 고산로 28 (고천동, 한진화학(주))",
    "lat": "37.3523856",
    "lng": "126.9680223",
    "monthlyCapacity": "ㅇㅇ대",
    "currentIncoming": "ㅇㅇ대",
    "possibleIncoming": "ㅇㅇ대",
    "repairGeneral": "ⅹ",
    "repairAccident": "○",
    "pointHyundai": "-",
    "pointKia": "-",
    "notes": "-",
    "registerDate": 20250701
  },
  {
    "name": "북부현대공업사",
    "grade": "2급",
    "priority": 1,
    "HCS": "Y",
    "phone": "010-6276-6106 (김희문)",
    "address": "경기도 의정부시 용현로105번길 45-7 (민락동, 북부현대공업사)",
    "lat": "37.7431752",
    "lng": "127.0865684",
    "monthlyCapacity": "ㅇㅇ대",
    "currentIncoming": "ㅇㅇ대",
    "possibleIncoming": "ㅇㅇ대",
    "repairGeneral": "ⅹ",
    "repairAccident": "○",
    "pointHyundai": "-",
    "pointKia": "-",
    "notes": "-",
    "registerDate": 20250701
  },
  {
    "name": "가능현대공업사",
    "grade": "2급",
    "priority": 1,
    "HCS": "Y",
    "phone": "010-3587-3587 (유승구)",
    "address": "경기도 의정부시 입석로55번길 21 (가능동)",
    "lat": "37.7539411",
    "lng": "127.0192197",
    "monthlyCapacity": "ㅇㅇ대",
    "currentIncoming": "ㅇㅇ대",
    "possibleIncoming": "ㅇㅇ대",
    "repairGeneral": "ⅹ",
    "repairAccident": "○",
    "pointHyundai": "-",
    "pointKia": "-",
    "notes": "-",
    "registerDate": 20250701
  },
  {
    "name": "대월현대자동차공업사",
    "grade": "2급",
    "priority": 1,
    "HCS": "Y",
    "phone": "010-4724-5627 (김은호)",
    "address": "경기도 이천시 경충대로 1593 (대월면)",
    "lat": "37.2222546",
    "lng": "127.5243437",
    "monthlyCapacity": "ㅇㅇ대",
    "currentIncoming": "ㅇㅇ대",
    "possibleIncoming": "ㅇㅇ대",
    "repairGeneral": "ⅹ",
    "repairAccident": "○",
    "pointHyundai": "-",
    "pointKia": "-",
    "notes": "(얼라이먼트X)",
    "registerDate": 20250701
  },
  {
    "name": "JK공업사",
    "grade": "1급",
    "priority": 1,
    "HCS": "Y",
    "phone": "010-9449-9696 (김재경)",
    "address": "경기도 파주시 아리랑로 8 (금촌동)",
    "lat": "37.7620471",
    "lng": "126.7677884",
    "monthlyCapacity": "ㅇㅇ대",
    "currentIncoming": "ㅇㅇ대",
    "possibleIncoming": "ㅇㅇ대",
    "repairGeneral": "ⅹ",
    "repairAccident": "○",
    "pointHyundai": "-",
    "pointKia": "-",
    "notes": "-",
    "registerDate": 20250701
  },
  {
    "name": "우석공업사",
    "grade": "1급",
    "priority": 1,
    "HCS": "Y",
    "phone": "010-7128-5449 (이기엽)",
    "address": "경기도 평택시 노루댕이1길 14 (장당동)",
    "lat": "37.0445414",
    "lng": "127.0637983",
    "monthlyCapacity": "ㅇㅇ대",
    "currentIncoming": "ㅇㅇ대",
    "possibleIncoming": "ㅇㅇ대",
    "repairGeneral": "○",
    "repairAccident": "○",
    "pointHyundai": "-",
    "pointKia": "-",
    "notes": "(검사가능)",
    "registerDate": 20250701
  },
  {
    "name": "그린서비스",
    "grade": "2급",
    "priority": 1,
    "HCS": "Y",
    "phone": "010-8730-4974 (이기덕)",
    "address": "서울 강서구 남부순환로19길 48-37 (금만물산)",
    "lat": 37.5465596,
    "lng": 126.82533,
    "monthlyCapacity": "ㅇㅇ대",
    "currentIncoming": "ㅇㅇ대",
    "possibleIncoming": "ㅇㅇ대",
    "repairGeneral": "ⅹ",
    "repairAccident": "○",
    "pointHyundai": "-",
    "pointKia": "-",
    "notes": "-",
    "registerDate": 20250701
  },
  {
    "name": "위드모터스",
    "grade": "2급",
    "priority": 1,
    "HCS": "Y",
    "phone": "010-2720-8605 (김현미)",
    "address": "서울특별시 금천구 가산로 50-7 (독산동)",
    "lat": "37.4719731",
    "lng": "126.8971256",
    "monthlyCapacity": "ㅇㅇ대",
    "currentIncoming": "ㅇㅇ대",
    "possibleIncoming": "ㅇㅇ대",
    "repairGeneral": "ⅹ",
    "repairAccident": "○",
    "pointHyundai": "-",
    "pointKia": "-",
    "notes": "-",
    "registerDate": 20250701
  },
  {
    "name": "동우자동차공업사",
    "grade": "1급",
    "priority": 1,
    "HCS": "Y",
    "phone": "010-2651-9813 (윤철)",
    "address": "서울특별시 도봉구 방학로 45 (방학동, 방학동정비공장)",
    "lat": "37.6624088",
    "lng": "127.0471185",
    "monthlyCapacity": "ㅇㅇ대",
    "currentIncoming": "ㅇㅇ대",
    "possibleIncoming": "ㅇㅇ대",
    "repairGeneral": "ⅹ",
    "repairAccident": "입고중지-계약해지",
    "pointHyundai": "-",
    "pointKia": "-",
    "notes": "-",
    "registerDate": 20251114
  },
  {
    "name": "트루모터스",
    "grade": "1급",
    "priority": 1,
    "HCS": "Y",
    "phone": "010-9073-4280 (이상열)",
    "address": "서울특별시 성동구 연무장길 87 (성수동2가)",
    "lat": "37.5416245",
    "lng": "127.0589631",
    "monthlyCapacity": "ㅇㅇ대",
    "currentIncoming": "ㅇㅇ대",
    "possibleIncoming": "ㅇㅇ대",
    "repairGeneral": "ⅹ",
    "repairAccident": "입고중지-내부사정",
    "pointHyundai": "-",
    "pointKia": "-",
    "notes": "-",
    "registerDate": 20250701
  },
  {
    "name": "대성카독크",
    "grade": "1급",
    "priority": 1,
    "HCS": "Y",
    "phone": "010-5411-3174 (강병하)",
    "address": "서울특별시 영등포구 양평로19길 31 (양평동4가)",
    "lat": "37.5346956",
    "lng": "126.8936772",
    "monthlyCapacity": "ㅇㅇ대",
    "currentIncoming": "ㅇㅇ대",
    "possibleIncoming": "ㅇㅇ대",
    "repairGeneral": "ⅹ",
    "repairAccident": "o",
    "pointHyundai": "-",
    "pointKia": "-",
    "notes": "(유리입고금지)",
    "registerDate": 20250701
  },
  {
    "name": "중랑자동차공업",
    "grade": "1급",
    "priority": 1,
    "HCS": "Y",
    "phone": "010-5266-3455 (황영학)",
    "address": "서울특별시 중랑구 망우로 189 (중화동, 중랑자동차공업(주))",
    "lat": "37.5938447",
    "lng": "127.0737281",
    "monthlyCapacity": "ㅇㅇ대",
    "currentIncoming": "ㅇㅇ대",
    "possibleIncoming": "ㅇㅇ대",
    "repairGeneral": "ⅹ",
    "repairAccident": "○",
    "pointHyundai": "-",
    "pointKia": "-",
    "notes": "(상용겸용)",
    "registerDate": 20250701
  },
  {
    "name": "아트샵모터스",
    "grade": "1급",
    "priority": 1,
    "HCS": "Y",
    "phone": "010-8618-5402 (김태준)",
    "address": "인천 서구 봉수대로 251 ()",
    "lat": "37.4980062",
    "lng": "126.6609014",
    "monthlyCapacity": "ㅇㅇ대",
    "currentIncoming": "ㅇㅇ대",
    "possibleIncoming": "ㅇㅇ대",
    "repairGeneral": "ⅹ",
    "repairAccident": "○",
    "pointHyundai": "-",
    "pointKia": "-",
    "notes": "(예약必)",
    "registerDate": 20250701
  },
  {
    "name": "유너모터스",
    "grade": "1급",
    "priority": 1,
    "HCS": "Y",
    "phone": "010-6846-0899 (김열)",
    "address": "인천광역시 미추홀구 염전로 381 (주안동)",
    "lat": "37.4703718",
    "lng": "126.6823328",
    "monthlyCapacity": "ㅇㅇ대",
    "currentIncoming": "ㅇㅇ대",
    "possibleIncoming": "ㅇㅇ대",
    "repairGeneral": "ⅹ",
    "repairAccident": "o",
    "pointHyundai": "-",
    "pointKia": "-",
    "notes": "-",
    "registerDate": 20250701
  },
  {
    "name": "인천오토컴퍼니",
    "grade": "1급",
    "priority": 1,
    "HCS": "Y",
    "phone": "010-4303-3282 (이용우)",
    "address": "인천 중구 서해대로180번길 65",
    "lat": 37.4418305,
    "lng": 126.628761,
    "monthlyCapacity": "ㅇㅇ대",
    "currentIncoming": "ㅇㅇ대",
    "possibleIncoming": "ㅇㅇ대",
    "repairGeneral": "ⅹ",
    "repairAccident": "○",
    "pointHyundai": "-",
    "pointKia": "-",
    "notes": "수입차 사고수리 가능",
    "registerDate": 20250701
  },
  {
    "name": "성은자동차공업사",
    "grade": "1급",
    "priority": 1,
    "HCS": "Y",
    "phone": "010-3350-5896 (류성문)",
    "address": "강원도 속초시 싸리재길 247-26",
    "lat": 38.1835353,
    "lng": 128.558823,
    "monthlyCapacity": "ㅇㅇ대",
    "currentIncoming": "ㅇㅇ대",
    "possibleIncoming": "ㅇㅇ대",
    "repairGeneral": "ⅹ",
    "repairAccident": "○",
    "pointHyundai": "-",
    "pointKia": "-",
    "notes": "(상용겸용)",
    "registerDate": 20250701
  },
  {
    "name": "순호자동차공업사",
    "grade": "1급",
    "priority": 1,
    "HCS": "Y",
    "phone": "033-747-3300 (전낙철)",
    "address": "강원도 원주시 북원로 2807 (태장동)",
    "lat": "37.3941796",
    "lng": "127.9501474",
    "monthlyCapacity": "ㅇㅇ대",
    "currentIncoming": "ㅇㅇ대",
    "possibleIncoming": "ㅇㅇ대",
    "repairGeneral": "ⅹ",
    "repairAccident": "○",
    "pointHyundai": "-",
    "pointKia": "-",
    "notes": "(상용겸용)",
    "registerDate": 20250701
  },
  {
    "name": "효성카독크",
    "grade": "2급",
    "priority": 1,
    "HCS": "Y",
    "phone": "033-257-0554 (우혜숙)",
    "address": "강원도 춘천시 춘천로56번길 19-1 (효자동)",
    "lat": "37.8686260",
    "lng": "127.7260522",
    "monthlyCapacity": "ㅇㅇ대",
    "currentIncoming": "ㅇㅇ대",
    "possibleIncoming": "ㅇㅇ대",
    "repairGeneral": "ⅹ",
    "repairAccident": "○",
    "pointHyundai": "-",
    "pointKia": "-",
    "notes": "-",
    "registerDate": 20250701
  },
  {
    "name": "강원21세기공업사",
    "grade": "2급",
    "priority": 1,
    "HCS": "Y",
    "phone": "010-2255-3315 (변태영)",
    "address": "강원도 태백시 동태백로 1147 (통동)",
    "lat": "37.1654389",
    "lng": "129.0312874",
    "monthlyCapacity": "ㅇㅇ대",
    "currentIncoming": "ㅇㅇ대",
    "possibleIncoming": "ㅇㅇ대",
    "repairGeneral": "ⅹ",
    "repairAccident": "○",
    "pointHyundai": "-",
    "pointKia": "-",
    "notes": "-",
    "registerDate": 20250701
  },
  {
    "name": "동강릉현대서비스",
    "grade": "2급",
    "priority": 1,
    "HCS": "Y",
    "phone": "033-652-0310 (이경민)",
    "address": "강원도 강릉시 월대산로 151 (두산동)",
    "lat": "37.7599218",
    "lng": "128.9270424",
    "monthlyCapacity": "ㅇㅇ대",
    "currentIncoming": "ㅇㅇ대",
    "possibleIncoming": "ㅇㅇ대",
    "repairGeneral": "ⅹ",
    "repairAccident": "○",
    "pointHyundai": "○",
    "pointKia": "-",
    "notes": "-",
    "registerDate": 20250701
  },
  {
    "name": "성운종합정비",
    "grade": "2급",
    "priority": 1,
    "HCS": "Y",
    "phone": "010-4532-3883 (황성운)",
    "address": "경북 포항시 북구 아치로 159 ()",
    "lat": "36.0576124",
    "lng": "129.3483710",
    "monthlyCapacity": "ㅇㅇ대",
    "currentIncoming": "ㅇㅇ대",
    "possibleIncoming": "ㅇㅇ대",
    "repairGeneral": "ⅹ",
    "repairAccident": "○",
    "pointHyundai": "-",
    "pointKia": "-",
    "notes": "-",
    "registerDate": 20250701
  },
  {
    "name": "세창종합정비",
    "grade": "1급",
    "priority": 1,
    "HCS": "Y",
    "phone": "010-3495-5055 (정윤석)",
    "address": "경상남도 거제시 송정5길 112-7 (연초면)",
    "lat": "34.9063277",
    "lng": "128.6800581",
    "monthlyCapacity": "ㅇㅇ대",
    "currentIncoming": "ㅇㅇ대",
    "possibleIncoming": "ㅇㅇ대",
    "repairGeneral": "ⅹ",
    "repairAccident": "○",
    "pointHyundai": "-",
    "pointKia": "-",
    "notes": "-",
    "registerDate": 20250701
  },
  {
    "name": "한국지엠거제서비스센타",
    "grade": "1급",
    "priority": 1,
    "HCS": "Y",
    "phone": "010-2805-8007 (김정주)",
    "address": "경상남도 거제시 연하해안로 206 (연초면)",
    "lat": "34.8988261",
    "lng": "128.6306785",
    "monthlyCapacity": "ㅇㅇ대",
    "currentIncoming": "ㅇㅇ대",
    "possibleIncoming": "ㅇㅇ대",
    "repairGeneral": "ⅹ",
    "repairAccident": "○",
    "pointHyundai": "-",
    "pointKia": "-",
    "notes": "-",
    "registerDate": 20250701
  },
  {
    "name": "신장유자동차종합정비",
    "grade": "1급",
    "priority": 1,
    "HCS": "Y",
    "phone": "010-3556-4508 (윤여원)",
    "address": "경상남도 김해시 장유로115번길 1 (부곡동)",
    "lat": "35.2115533",
    "lng": "128.8009044",
    "monthlyCapacity": "ㅇㅇ대",
    "currentIncoming": "ㅇㅇ대",
    "possibleIncoming": "ㅇㅇ대",
    "repairGeneral": "ⅹ",
    "repairAccident": "o",
    "pointHyundai": "-",
    "pointKia": "-",
    "notes": "-",
    "registerDate": 20250701
  },
  {
    "name": "동성엔대림종합정비",
    "grade": "1급",
    "priority": 1,
    "HCS": "Y",
    "phone": "010-4175-1185 (장기규)",
    "address": "경상남도 사천시 항공로 54 (사천읍, 동성1급정비)",
    "lat": "35.0809659",
    "lng": "128.0770864",
    "monthlyCapacity": "ㅇㅇ대",
    "currentIncoming": "ㅇㅇ대",
    "possibleIncoming": "ㅇㅇ대",
    "repairGeneral": "ⅹ",
    "repairAccident": "○",
    "pointHyundai": "-",
    "pointKia": "-",
    "notes": "-",
    "registerDate": 20250701
  },
  {
    "name": "스마트종합정비",
    "grade": "1급",
    "priority": 1,
    "HCS": "Y",
    "phone": "010-6566-4972 (손철식)",
    "address": "경상남도 양산시 북정공단1길 63 (북정동, 미성강업)",
    "lat": "35.3664459",
    "lng": "129.0442830",
    "monthlyCapacity": "ㅇㅇ대",
    "currentIncoming": "ㅇㅇ대",
    "possibleIncoming": "ㅇㅇ대",
    "repairGeneral": "ⅹ",
    "repairAccident": "○",
    "pointHyundai": "-",
    "pointKia": "-",
    "notes": "-",
    "registerDate": 20250701
  },
  {
    "name": "대운자동차정비공업사",
    "grade": "1급",
    "priority": 1,
    "HCS": "Y",
    "phone": "010-8420-0112 (정찬현)",
    "address": "경상남도 진주시 대신로115번길 12 (상평동)",
    "lat": "35.1708500",
    "lng": "128.1169229",
    "monthlyCapacity": "ㅇㅇ대",
    "currentIncoming": "ㅇㅇ대",
    "possibleIncoming": "ㅇㅇ대",
    "repairGeneral": "ⅹ",
    "repairAccident": "○",
    "pointHyundai": "-",
    "pointKia": "-",
    "notes": "-",
    "registerDate": 20250701
  },
  {
    "name": "신포자동차정비",
    "grade": "1급",
    "priority": 1,
    "HCS": "Y",
    "phone": "010-3863-8799 (이윤석)",
    "address": "경상남도 창원시 마산합포구 수산1길 12 (신포동1가, 신포자동차정비공장)",
    "lat": "35.1981323",
    "lng": "128.5731226",
    "monthlyCapacity": "ㅇㅇ대",
    "currentIncoming": "ㅇㅇ대",
    "possibleIncoming": "ㅇㅇ대",
    "repairGeneral": "○",
    "repairAccident": "○",
    "pointHyundai": "-",
    "pointKia": "-",
    "notes": "-",
    "registerDate": "-"
  },
  {
    "name": "좋은정비",
    "grade": "2급",
    "priority": 1,
    "HCS": "Y",
    "phone": "010-8557-3736 (한기월)",
    "address": "경상남도 통영시 춘원2로 49-45 (광도면)",
    "lat": "34.9560945",
    "lng": "128.4120853",
    "monthlyCapacity": "ㅇㅇ대",
    "currentIncoming": "ㅇㅇ대",
    "possibleIncoming": "ㅇㅇ대",
    "repairGeneral": "ⅹ",
    "repairAccident": "○",
    "pointHyundai": "-",
    "pointKia": "-",
    "notes": "-",
    "registerDate": 20250701
  },
  {
    "name": "우신종합자동차정비",
    "grade": "1급",
    "priority": 1,
    "HCS": "Y",
    "phone": "010-7460-1128 (권상렬)",
    "address": "경상북도 경주시 외외1길 166 (충효동)",
    "lat": "35.8337787",
    "lng": "129.1628909",
    "monthlyCapacity": "ㅇㅇ대",
    "currentIncoming": "ㅇㅇ대",
    "possibleIncoming": "ㅇㅇ대",
    "repairGeneral": "ⅹ",
    "repairAccident": "○",
    "pointHyundai": "-",
    "pointKia": "-",
    "notes": "(덴트가능)",
    "registerDate": 20250701
  },
  {
    "name": "제일정비공장(구미)",
    "grade": "1급",
    "priority": 1,
    "HCS": "Y",
    "phone": "010-3172-3301 (곽철민)",
    "address": "경상북도 구미시 화신로8길 4-23 (광평동)",
    "lat": "36.1132051",
    "lng": "128.3581490",
    "monthlyCapacity": "ㅇㅇ대",
    "currentIncoming": "ㅇㅇ대",
    "possibleIncoming": "ㅇㅇ대",
    "repairGeneral": "ⅹ",
    "repairAccident": "○",
    "pointHyundai": "-",
    "pointKia": "-",
    "notes": "-",
    "registerDate": 20250701
  },
  {
    "name": "삼성자동차정비",
    "grade": "1급",
    "priority": 1,
    "HCS": "Y",
    "phone": "010-5368-0661 (이명재)",
    "address": "경상북도 김천시 백옥1길 5 (백옥동)",
    "lat": "36.1246342",
    "lng": "128.0821653",
    "monthlyCapacity": "ㅇㅇ대",
    "currentIncoming": "ㅇㅇ대",
    "possibleIncoming": "ㅇㅇ대",
    "repairGeneral": "ⅹ",
    "repairAccident": "○",
    "pointHyundai": "-",
    "pointKia": "-",
    "notes": "-",
    "registerDate": 20250701
  },
  {
    "name": "성광자동차정비공장",
    "grade": "1급",
    "priority": 1,
    "HCS": "Y",
    "phone": "010-4813-5533 (권나영)",
    "address": "경상북도 안동시 경동로 958 (용상동)",
    "lat": "36.5542421",
    "lng": "128.7582376",
    "monthlyCapacity": "ㅇㅇ대",
    "currentIncoming": "ㅇㅇ대",
    "possibleIncoming": "ㅇㅇ대",
    "repairGeneral": "ⅹ",
    "repairAccident": "○",
    "pointHyundai": "-",
    "pointKia": "-",
    "notes": "-",
    "registerDate": 20250701
  },
  {
    "name": "제일정비공장(영주)",
    "grade": "2급",
    "priority": 1,
    "HCS": "Y",
    "phone": "010-6382-9943 (강봉희)",
    "address": "경상북도 영주시 의상로 136 (상망동)",
    "lat": "36.8483368",
    "lng": "128.6393793",
    "monthlyCapacity": "ㅇㅇ대",
    "currentIncoming": "ㅇㅇ대",
    "possibleIncoming": "ㅇㅇ대",
    "repairGeneral": "ⅹ",
    "repairAccident": "○",
    "pointHyundai": "-",
    "pointKia": "-",
    "notes": "-",
    "registerDate": 20250701
  },
  {
    "name": "스마일카관리서비스",
    "grade": "1급",
    "priority": 1,
    "HCS": "Y",
    "phone": "010-3622-1077 (이정학)",
    "address": "광주 광산구 북문대로 629-15 ()",
    "lat": "35.2074007",
    "lng": "126.8320266",
    "monthlyCapacity": "ㅇㅇ대",
    "currentIncoming": "ㅇㅇ대",
    "possibleIncoming": "ㅇㅇ대",
    "repairGeneral": "ⅹ",
    "repairAccident": "○",
    "pointHyundai": "-",
    "pointKia": "-",
    "notes": "-",
    "registerDate": 20250701
  },
  {
    "name": "한결자동차서비스",
    "grade": "1급",
    "priority": 1,
    "HCS": "Y",
    "phone": "010-2109-4969 (양정식)",
    "address": "광주 동구 소태길 76 ((유)한결자동차서비스)",
    "lat": "35.1206388",
    "lng": "126.9406839",
    "monthlyCapacity": "ㅇㅇ대",
    "currentIncoming": "ㅇㅇ대",
    "possibleIncoming": "ㅇㅇ대",
    "repairGeneral": "ⅹ",
    "repairAccident": "○",
    "pointHyundai": "-",
    "pointKia": "-",
    "notes": "-",
    "registerDate": 20250701
  },
  {
    "name": "진왕자동차공업사",
    "grade": "1급",
    "priority": 1,
    "HCS": "Y",
    "phone": "062-943-9300 (김종석)",
    "address": "광주광역시 광산구 소촌로152번길 53-20 (소촌동)",
    "lat": "35.1577184",
    "lng": "126.7983492",
    "monthlyCapacity": "ㅇㅇ대",
    "currentIncoming": "ㅇㅇ대",
    "possibleIncoming": "ㅇㅇ대",
    "repairGeneral": "ⅹ",
    "repairAccident": "○",
    "pointHyundai": "-",
    "pointKia": "-",
    "notes": "-",
    "registerDate": 20250701
  },
  {
    "name": "남대구서비스",
    "grade": "1급",
    "priority": 1,
    "HCS": "Y",
    "phone": "010-3533-5763 (유형근)",
    "address": "대구광역시 달서구 성서공단로61길 12 (장동)",
    "lat": "35.8370121",
    "lng": "128.5171622",
    "monthlyCapacity": "ㅇㅇ대",
    "currentIncoming": "ㅇㅇ대",
    "possibleIncoming": "ㅇㅇ대",
    "repairGeneral": "ⅹ",
    "repairAccident": "o",
    "pointHyundai": "-",
    "pointKia": "-",
    "notes": "-",
    "registerDate": 20250701
  },
  {
    "name": "하나정비",
    "grade": "1급",
    "priority": 1,
    "HCS": "Y",
    "phone": "010-8587-6817 (오세욱)",
    "address": "대구광역시 동구 안심로55길 25 (동호동)",
    "lat": "35.8683320",
    "lng": "128.7156170",
    "monthlyCapacity": "ㅇㅇ대",
    "currentIncoming": "ㅇㅇ대",
    "possibleIncoming": "ㅇㅇ대",
    "repairGeneral": "ⅹ",
    "repairAccident": "○",
    "pointHyundai": "-",
    "pointKia": "-",
    "notes": "-",
    "registerDate": 20250701
  },
  {
    "name": "원모터스",
    "grade": "2급",
    "priority": 1,
    "HCS": "Y",
    "phone": "010-8564-6353 (엄원일)",
    "address": "대구광역시 서구 국채보상로14길 29-15 (중리동)",
    "lat": "35.8661931",
    "lng": "128.5403669",
    "monthlyCapacity": "ㅇㅇ대",
    "currentIncoming": "ㅇㅇ대",
    "possibleIncoming": "ㅇㅇ대",
    "repairGeneral": "ⅹ",
    "repairAccident": "○",
    "pointHyundai": "-",
    "pointKia": "-",
    "notes": "-",
    "registerDate": 20250701
  },
  {
    "name": "월평정비검사장",
    "grade": "1급",
    "priority": 1,
    "HCS": "Y",
    "phone": "010-3455-3040 (김정부)",
    "address": "대전광역시 서구 월드컵대로 484번길 148-4",
    "lat": "36.3438977",
    "lng": "127.354012",
    "monthlyCapacity": "ㅇㅇ대",
    "currentIncoming": "ㅇㅇ대",
    "possibleIncoming": "ㅇㅇ대",
    "repairGeneral": "ⅹ",
    "repairAccident": "○",
    "pointHyundai": "-",
    "pointKia": "-",
    "notes": "-",
    "registerDate": 20250731
  },
  {
    "name": "신기림종합정비공장",
    "grade": "2급",
    "priority": 1,
    "HCS": "Y",
    "phone": "010-8547-4912 (한준호)",
    "address": "부산광역시 금정구 공단서로18번길 76 (금사동)",
    "lat": "35.2169317",
    "lng": "129.1144883",
    "monthlyCapacity": "ㅇㅇ대",
    "currentIncoming": "ㅇㅇ대",
    "possibleIncoming": "ㅇㅇ대",
    "repairGeneral": "ⅹ",
    "repairAccident": "○",
    "pointHyundai": "-",
    "pointKia": "-",
    "notes": "-",
    "registerDate": 20250701
  },
  {
    "name": "그린오토정비",
    "grade": "1급",
    "priority": 1,
    "HCS": "Y",
    "phone": "010-5046-2285 (여은태)",
    "address": "부산광역시 사상구 낙동대로1048번길 52 (감전동)",
    "lat": "35.1530197",
    "lng": "128.9757578",
    "monthlyCapacity": "ㅇㅇ대",
    "currentIncoming": "ㅇㅇ대",
    "possibleIncoming": "ㅇㅇ대",
    "repairGeneral": "ⅹ",
    "repairAccident": "○",
    "pointHyundai": "-",
    "pointKia": "-",
    "notes": "-",
    "registerDate": 20250701
  },
  {
    "name": "태원정비",
    "grade": "1급",
    "priority": 1,
    "HCS": "Y",
    "phone": "010-9310-9367 (황수역)",
    "address": "부산광역시 연제구 거제대로 182 (거제동)",
    "lat": "35.1845720",
    "lng": "129.0712872",
    "monthlyCapacity": "ㅇㅇ대",
    "currentIncoming": "ㅇㅇ대",
    "possibleIncoming": "ㅇㅇ대",
    "repairGeneral": "ⅹ",
    "repairAccident": "입고중지-내부사정",
    "pointHyundai": "-",
    "pointKia": "-",
    "notes": "-",
    "registerDate": 20251112
  },
  {
    "name": "씨엘티앤알(씨엘정비공장)",
    "grade": "1급",
    "priority": 1,
    "HCS": "Y",
    "phone": "010-9115-1583 (장명수)",
    "address": "울산광역시 남구 처용로 40 (여천동)",
    "lat": "35.5143321",
    "lng": "129.3417282",
    "monthlyCapacity": "ㅇㅇ대",
    "currentIncoming": "ㅇㅇ대",
    "possibleIncoming": "ㅇㅇ대",
    "repairGeneral": "ⅹ",
    "repairAccident": "○",
    "pointHyundai": "-",
    "pointKia": "-",
    "notes": "(상용겸용)",
    "registerDate": 20250701
  },
  {
    "name": "동광양자동차공업사",
    "grade": "1급",
    "priority": 1,
    "HCS": "Y",
    "phone": "010-2624-7600 (이수정)",
    "address": "전남 광양시 느지매기길 105 ()",
    "lat": "34.9557504",
    "lng": "127.6767489",
    "monthlyCapacity": "ㅇㅇ대",
    "currentIncoming": "ㅇㅇ대",
    "possibleIncoming": "ㅇㅇ대",
    "repairGeneral": "ⅹ",
    "repairAccident": "○",
    "pointHyundai": "-",
    "pointKia": "-",
    "notes": "-",
    "registerDate": 20250701
  },
  {
    "name": "일급혁신자동차",
    "grade": "1급",
    "priority": 1,
    "HCS": "Y",
    "phone": "010-5172-3150 (장재영)",
    "address": "전라남도 나주시 교원교촌길 22-3 (남평읍, 1급자동차정비소)",
    "lat": "35.0350465",
    "lng": "126.8382934",
    "monthlyCapacity": "ㅇㅇ대",
    "currentIncoming": "ㅇㅇ대",
    "possibleIncoming": "ㅇㅇ대",
    "repairGeneral": "ⅹ",
    "repairAccident": "○",
    "pointHyundai": "-",
    "pointKia": "-",
    "notes": "-",
    "registerDate": 20250701
  },
  {
    "name": "광일자동차서비스",
    "grade": "1급",
    "priority": 1,
    "HCS": "Y",
    "phone": "010-7268-7232 (신유미)",
    "address": "전라남도 목포시 고하대로 863 (연산동)",
    "lat": "34.8206962",
    "lng": "126.3840565",
    "monthlyCapacity": "ㅇㅇ대",
    "currentIncoming": "ㅇㅇ대",
    "possibleIncoming": "ㅇㅇ대",
    "repairGeneral": "ⅹ",
    "repairAccident": "○",
    "pointHyundai": "-",
    "pointKia": "-",
    "notes": "(상용겸용)",
    "registerDate": 20250701
  },
  {
    "name": "봉화자동차1급공업사",
    "grade": "1급",
    "priority": 1,
    "HCS": "Y",
    "phone": "010-6623-2646 (이대우)",
    "address": "전라남도 순천시 율촌산단4로 77-53 (해룡면)",
    "lat": "34.9022369",
    "lng": "127.5868963",
    "monthlyCapacity": "ㅇㅇ대",
    "currentIncoming": "ㅇㅇ대",
    "possibleIncoming": "ㅇㅇ대",
    "repairGeneral": "ⅹ",
    "repairAccident": "○",
    "pointHyundai": "-",
    "pointKia": "-",
    "notes": "-",
    "registerDate": 20250701
  },
  {
    "name": "그린웨이자동차공업사",
    "grade": "1급",
    "priority": 1,
    "HCS": "Y",
    "phone": "010-5667-0643 (장현이)",
    "address": "전라남도 여수시 봉계4길 7 (봉계동)",
    "lat": "34.7846033",
    "lng": "127.6640070",
    "monthlyCapacity": "ㅇㅇ대",
    "currentIncoming": "ㅇㅇ대",
    "possibleIncoming": "ㅇㅇ대",
    "repairGeneral": "ⅹ",
    "repairAccident": "○",
    "pointHyundai": "-",
    "pointKia": "-",
    "notes": "-",
    "registerDate": 20250701
  },
  {
    "name": "1급제일자동차공업사",
    "grade": "1급",
    "priority": 1,
    "HCS": "Y",
    "phone": "010-9264-4949 (김항섭)",
    "address": "전라북도 군산시 십자다리길 65",
    "lat": 35.9704743,
    "lng": 126.660488,
    "monthlyCapacity": "ㅇㅇ대",
    "currentIncoming": "ㅇㅇ대",
    "possibleIncoming": "ㅇㅇ대",
    "repairGeneral": "ⅹ",
    "repairAccident": "○",
    "pointHyundai": "-",
    "pointKia": "-",
    "notes": "-",
    "registerDate": 20250701
  },
  {
    "name": "평화자동차공업사",
    "grade": "1급",
    "priority": 1,
    "HCS": "Y",
    "phone": "010-3021-8778 (양종현)",
    "address": "전라북도 전주시 덕진구 추천로 47-24 (팔복동3가)",
    "lat": "35.8437150",
    "lng": "127.0996999",
    "monthlyCapacity": "ㅇㅇ대",
    "currentIncoming": "ㅇㅇ대",
    "possibleIncoming": "ㅇㅇ대",
    "repairGeneral": "ⅹ",
    "repairAccident": "○",
    "pointHyundai": "-",
    "pointKia": "-",
    "notes": "-",
    "registerDate": 20250701
  },
  {
    "name": "삼원자동차공업사",
    "grade": "1급",
    "priority": 1,
    "HCS": "Y",
    "phone": "010-5336-3530 (이정윤)",
    "address": "제주특별자치도 서귀포시 상모대서로 68 (대정읍)",
    "lat": "33.2280845",
    "lng": "126.2603511",
    "monthlyCapacity": "ㅇㅇ대",
    "currentIncoming": "ㅇㅇ대",
    "possibleIncoming": "ㅇㅇ대",
    "repairGeneral": "ⅹ",
    "repairAccident": "입고중지-내부사정",
    "pointHyundai": "-",
    "pointKia": "-",
    "notes": "-",
    "registerDate": 20250701
  },
  {
    "name": "부강자동차공업사",
    "grade": "1급",
    "priority": 1,
    "HCS": "Y",
    "phone": "010-2176-2010 (고영백)",
    "address": "제주특별자치도 서귀포시 서성일로 904 (성산읍)",
    "lat": "33.4389165",
    "lng": "126.8762994",
    "monthlyCapacity": "ㅇㅇ대",
    "currentIncoming": "ㅇㅇ대",
    "possibleIncoming": "ㅇㅇ대",
    "repairGeneral": "ⅹ",
    "repairAccident": "○",
    "pointHyundai": "-",
    "pointKia": "-",
    "notes": "-",
    "registerDate": 20250701
  },
  {
    "name": "자일제주서비스",
    "grade": "1급",
    "priority": 1,
    "HCS": "Y",
    "phone": "010-4597-3264 (김창재)",
    "address": "제주특별자치도 제주시 선반남2길 63 (화북일동)",
    "lat": "33.5128761",
    "lng": "126.5663550",
    "monthlyCapacity": "ㅇㅇ대",
    "currentIncoming": "ㅇㅇ대",
    "possibleIncoming": "ㅇㅇ대",
    "repairGeneral": "ⅹ",
    "repairAccident": "○",
    "pointHyundai": "-",
    "pointKia": "-",
    "notes": "-",
    "registerDate": 20250701
  },
  {
    "name": "공주종합모터스",
    "grade": "1급",
    "priority": 1,
    "HCS": "Y",
    "phone": "010-6829-3322 (조은주)",
    "address": "충청남도 공주시 장척로 30 (송선동)",
    "lat": "36.4838713",
    "lng": "127.1694964",
    "monthlyCapacity": "ㅇㅇ대",
    "currentIncoming": "ㅇㅇ대",
    "possibleIncoming": "ㅇㅇ대",
    "repairGeneral": "ⅹ",
    "repairAccident": "○",
    "pointHyundai": "-",
    "pointKia": "-",
    "notes": "-",
    "registerDate": 20250701
  },
  {
    "name": "현대오토종합정비",
    "grade": "1급",
    "priority": 1,
    "HCS": "Y",
    "phone": "010-3417-3492 (이계희)",
    "address": "충청남도 당진시 남부로 61 (채운동, 현대오토)",
    "lat": "36.8845897",
    "lng": "126.6229675",
    "monthlyCapacity": "ㅇㅇ대",
    "currentIncoming": "ㅇㅇ대",
    "possibleIncoming": "ㅇㅇ대",
    "repairGeneral": "ⅹ",
    "repairAccident": "○",
    "pointHyundai": "-",
    "pointKia": "-",
    "notes": "-",
    "registerDate": 20250701
  },
  {
    "name": "아름다운자동차공업사",
    "grade": "1급",
    "priority": 1,
    "HCS": "Y",
    "phone": "010-6256-9273 (박세진)",
    "address": "충청남도 아산시 모산로 30 (배방읍)",
    "lat": "36.7720988",
    "lng": "127.0462128",
    "monthlyCapacity": "ㅇㅇ대",
    "currentIncoming": "ㅇㅇ대",
    "possibleIncoming": "ㅇㅇ대",
    "repairGeneral": "ⅹ",
    "repairAccident": "○",
    "pointHyundai": "-",
    "pointKia": "-",
    "notes": "-",
    "registerDate": 20250701
  },
  {
    "name": "에이젠모터스",
    "grade": "2급",
    "priority": 1,
    "HCS": "Y",
    "phone": "010-8909-7088 (서길원)",
    "address": "충청남도 천안시 서북구 직산읍 삼은리 2-73",
    "lat": "36.8922105",
    "lng": "127.160406",
    "monthlyCapacity": "ㅇㅇ대",
    "currentIncoming": "ㅇㅇ대",
    "possibleIncoming": "ㅇㅇ대",
    "repairGeneral": "ⅹ",
    "repairAccident": "○",
    "pointHyundai": "-",
    "pointKia": "-",
    "notes": "-",
    "registerDate": 20250701
  },
  {
    "name": "통정모터스",
    "grade": "1급",
    "priority": 1,
    "HCS": "Y",
    "phone": "010-9796-0805 (김선우)",
    "address": "충청남도 천안시 동남구 서부대로 187",
    "lat": "36.7851265",
    "lng": "127.128055",
    "monthlyCapacity": "ㅇㅇ대",
    "currentIncoming": "ㅇㅇ대",
    "possibleIncoming": "ㅇㅇ대",
    "repairGeneral": "ⅹ",
    "repairAccident": "입고중지-내부사정",
    "pointHyundai": "-",
    "pointKia": "-",
    "notes": "-",
    "registerDate": 20250731
  },
  {
    "name": "오토월드자동차",
    "grade": "1급",
    "priority": 1,
    "HCS": "Y",
    "phone": "010-3170-6226 (김연우)",
    "address": "충청북도 음성군 대금로 672 (대소면)",
    "lat": "36.9713384",
    "lng": "127.5114206",
    "monthlyCapacity": "ㅇㅇ대",
    "currentIncoming": "ㅇㅇ대",
    "possibleIncoming": "ㅇㅇ대",
    "repairGeneral": "ⅹ",
    "repairAccident": "○",
    "pointHyundai": "-",
    "pointKia": "-",
    "notes": "-",
    "registerDate": 20250701
  },
  {
    "name": "일급서울정비공업사",
    "grade": "1급",
    "priority": 1,
    "HCS": "Y",
    "phone": "010-9968-3066 (이윤종)",
    "address": "충청북도 청주시 서원구 양촌4길 5 (남이면)",
    "lat": "36.5934916",
    "lng": "127.4751865",
    "monthlyCapacity": "ㅇㅇ대",
    "currentIncoming": "ㅇㅇ대",
    "possibleIncoming": "ㅇㅇ대",
    "repairGeneral": "ⅹ",
    "repairAccident": "○",
    "pointHyundai": "-",
    "pointKia": "-",
    "notes": "(상용겸용)",
    "registerDate": 20250701
  },
  {
    "name": "1급오창호수모터스",
    "grade": "1급",
    "priority": 1,
    "HCS": "Y",
    "phone": "010-9429-2918 (박준구)",
    "address": "충청북도 청주시 청원구 각리가곡로 459 (오창읍)",
    "lat": "36.7057409",
    "lng": "127.4496907",
    "monthlyCapacity": "ㅇㅇ대",
    "currentIncoming": "ㅇㅇ대",
    "possibleIncoming": "ㅇㅇ대",
    "repairGeneral": "ⅹ",
    "repairAccident": "○",
    "pointHyundai": "-",
    "pointKia": "-",
    "notes": "-",
    "registerDate": 20250701
  },
  {
    "name": "충주공업사",
    "grade": "1급",
    "priority": 1,
    "HCS": "Y",
    "phone": "010-8828-9229 (서형석)",
    "address": "충청북도 충주시 중원대로 3752-1 (용두동)",
    "lat": "36.9620507",
    "lng": "127.8902081",
    "monthlyCapacity": "ㅇㅇ대",
    "currentIncoming": "ㅇㅇ대",
    "possibleIncoming": "ㅇㅇ대",
    "repairGeneral": "ⅹ",
    "repairAccident": "○",
    "pointHyundai": "-",
    "pointKia": "-",
    "notes": "-",
    "registerDate": 20250701
  },
  {
    "name": "샵모빌리티",
    "grade": "1급",
    "priority": 1,
    "HCS": "Y",
    "phone": "010-9481-4447 (이재준)",
    "address": "경기 고양시 일산서구 덕산로195번길 19",
    "lat": 37.6956126,
    "lng": 126.724144,
    "monthlyCapacity": "ㅇㅇ대",
    "currentIncoming": "ㅇㅇ대",
    "possibleIncoming": "ㅇㅇ대",
    "repairGeneral": "ⅹ",
    "repairAccident": "○",
    "pointHyundai": "-",
    "pointKia": "-",
    "notes": "-",
    "registerDate": 20251223
  },
  {
    "name": "케이모터스",
    "grade": "1급",
    "priority": 1,
    "HCS": "Y",
    "phone": "010-3704-9877 (고영선)",
    "address": "경기 고양시 일산서구 송산로 531",
    "lat": 37.6906759,
    "lng": 126.736147,
    "monthlyCapacity": "ㅇㅇ대",
    "currentIncoming": "ㅇㅇ대",
    "possibleIncoming": "ㅇㅇ대",
    "repairGeneral": "ⅹ",
    "repairAccident": "○",
    "pointHyundai": "-",
    "pointKia": "-",
    "notes": "-",
    "registerDate": 20251223
  },
  {
    "name": "에이스현대공업사",
    "grade": "1급",
    "priority": 1,
    "HCS": "Y",
    "phone": "010-7540-6629 (안상천)",
    "address": "경기 광주시 고불로 271",
    "lat": 37.3982567,
    "lng": 127.20923,
    "monthlyCapacity": "ㅇㅇ대",
    "currentIncoming": "ㅇㅇ대",
    "possibleIncoming": "ㅇㅇ대",
    "repairGeneral": "ⅹ",
    "repairAccident": "○",
    "pointHyundai": "-",
    "pointKia": "-",
    "notes": "-",
    "registerDate": 20251223
  },
  {
    "name": "에이원모터스",
    "grade": "1급",
    "priority": 1,
    "HCS": "Y",
    "phone": "010-5798-1922 (박상진)",
    "address": "경기 부천시 원미로 193",
    "lat": 37.4996724,
    "lng": 126.792542,
    "monthlyCapacity": "ㅇㅇ대",
    "currentIncoming": "ㅇㅇ대",
    "possibleIncoming": "ㅇㅇ대",
    "repairGeneral": "ⅹ",
    "repairAccident": "○",
    "pointHyundai": "-",
    "pointKia": "-",
    "notes": "-",
    "registerDate": 20251223
  },
  {
    "name": "대림자동차서비스(주)",
    "grade": "1급",
    "priority": 1,
    "HCS": "Y",
    "phone": "010-3690-6267 (김종훈)",
    "address": "경기 성남시 사송로 77번길 72",
    "lat": 37.4089542,
    "lng": 127.11447,
    "monthlyCapacity": "ㅇㅇ대",
    "currentIncoming": "ㅇㅇ대",
    "possibleIncoming": "ㅇㅇ대",
    "repairGeneral": "ⅹ",
    "repairAccident": "○",
    "pointHyundai": "-",
    "pointKia": "○",
    "notes": "-",
    "registerDate": 20251223
  },
  {
    "name": "(주)신대영",
    "grade": "1급",
    "priority": 1,
    "HCS": "Y",
    "phone": "010-7147-8633 (임덕신)",
    "address": "경기 수원시 영통구 중부대로 448번길 77",
    "lat": 37.2668656,
    "lng": 127.060943,
    "monthlyCapacity": "ㅇㅇ대",
    "currentIncoming": "ㅇㅇ대",
    "possibleIncoming": "ㅇㅇ대",
    "repairGeneral": "ⅹ",
    "repairAccident": "○",
    "pointHyundai": "-",
    "pointKia": "-",
    "notes": "-",
    "registerDate": 20251223
  },
  {
    "name": "고경모터스",
    "grade": "1급",
    "priority": 1,
    "HCS": "Y",
    "phone": "010-4067-8609 (조미영)",
    "address": "경기 수원시 영통구 중부대로448번길 61 ()",
    "lat": 37.267325,
    "lng": 127.061202,
    "monthlyCapacity": "ㅇㅇ대",
    "currentIncoming": "ㅇㅇ대",
    "possibleIncoming": "ㅇㅇ대",
    "repairGeneral": "ⅹ",
    "repairAccident": "○",
    "pointHyundai": "-",
    "pointKia": "-",
    "notes": "-",
    "registerDate": 20251223
  },
  {
    "name": "㈜상록현대서비스",
    "grade": "1급",
    "priority": 1,
    "HCS": "Y",
    "phone": "010-6242-4439 (최병철)",
    "address": "경기 안산시 상록구 오목로 165",
    "lat": 37.2914484,
    "lng": 126.875964,
    "monthlyCapacity": "ㅇㅇ대",
    "currentIncoming": "ㅇㅇ대",
    "possibleIncoming": "ㅇㅇ대",
    "repairGeneral": "ⅹ",
    "repairAccident": "○",
    "pointHyundai": "○",
    "pointKia": "-",
    "notes": "-",
    "registerDate": 20251223
  },
  {
    "name": "친절현대서비스",
    "grade": "1급",
    "priority": 1,
    "HCS": "Y",
    "phone": "010-2441-1081 (안일권)",
    "address": "경기 안성시 죽산면 장원남산길 56",
    "lat": 37.07118,
    "lng": 127.427979,
    "monthlyCapacity": "ㅇㅇ대",
    "currentIncoming": "ㅇㅇ대",
    "possibleIncoming": "ㅇㅇ대",
    "repairGeneral": "ⅹ",
    "repairAccident": "○",
    "pointHyundai": "-",
    "pointKia": "-",
    "notes": "-",
    "registerDate": 20251223
  },
  {
    "name": "처인북부현대서비스",
    "grade": "1급",
    "priority": 1,
    "HCS": "Y",
    "phone": "010-5148-2209 (최종민)",
    "address": "경기 용인시 처인구 포곡읍 성산로 520 ()",
    "lat": 37.2798242,
    "lng": 127.199872,
    "monthlyCapacity": "ㅇㅇ대",
    "currentIncoming": "ㅇㅇ대",
    "possibleIncoming": "ㅇㅇ대",
    "repairGeneral": "ⅹ",
    "repairAccident": "○",
    "pointHyundai": "○",
    "pointKia": "-",
    "notes": "-",
    "registerDate": 20251223
  },
  {
    "name": "지산현대모터스",
    "grade": "1급",
    "priority": 1,
    "HCS": "Y",
    "phone": "010-3537-6545 (김원빈)",
    "address": "경기 평택시 지산로 300",
    "lat": 37.0753677,
    "lng": 127.086522,
    "monthlyCapacity": "ㅇㅇ대",
    "currentIncoming": "ㅇㅇ대",
    "possibleIncoming": "ㅇㅇ대",
    "repairGeneral": "ⅹ",
    "repairAccident": "○",
    "pointHyundai": "-",
    "pointKia": "-",
    "notes": "-",
    "registerDate": 20251223
  },
  {
    "name": "주식회사 선진모터스",
    "grade": "1급",
    "priority": 1,
    "HCS": "Y",
    "phone": "010-8928-5388 (박치훈)",
    "address": "경기 포천시 소흘읍 민락로 638",
    "lat": 37.7769332,
    "lng": 127.116322,
    "monthlyCapacity": "ㅇㅇ대",
    "currentIncoming": "ㅇㅇ대",
    "possibleIncoming": "ㅇㅇ대",
    "repairGeneral": "ⅹ",
    "repairAccident": "○",
    "pointHyundai": "-",
    "pointKia": "-",
    "notes": "-",
    "registerDate": 20251223
  },
  {
    "name": "㈜1급지성자동차정비",
    "grade": "1급",
    "priority": 1,
    "HCS": "Y",
    "phone": "010-4596-4882 (송재열)",
    "address": "경기 화성시 팔탄면 푸른들판로 596",
    "lat": 37.162071,
    "lng": 126.897941,
    "monthlyCapacity": "ㅇㅇ대",
    "currentIncoming": "ㅇㅇ대",
    "possibleIncoming": "ㅇㅇ대",
    "repairGeneral": "ⅹ",
    "repairAccident": "○",
    "pointHyundai": "-",
    "pointKia": "-",
    "notes": "-",
    "registerDate": 20251223
  },
  {
    "name": "유한회사 우성",
    "grade": "1급",
    "priority": 1,
    "HCS": "Y",
    "phone": "010-3646-7366 (정태성)",
    "address": "광주 남구 송하동 254-4",
    "lat": 35.112628,
    "lng": 126.879361,
    "monthlyCapacity": "ㅇㅇ대",
    "currentIncoming": "ㅇㅇ대",
    "possibleIncoming": "ㅇㅇ대",
    "repairGeneral": "ⅹ",
    "repairAccident": "○",
    "pointHyundai": "-",
    "pointKia": "-",
    "notes": "-",
    "registerDate": 20251223
  },
  {
    "name": "J1모터스",
    "grade": "1급",
    "priority": 1,
    "HCS": "Y",
    "phone": "010-3550-3950 (윤희균)",
    "address": "부산 수영구 광남로 177",
    "lat": 35.1570262,
    "lng": 129.119225,
    "monthlyCapacity": "ㅇㅇ대",
    "currentIncoming": "ㅇㅇ대",
    "possibleIncoming": "ㅇㅇ대",
    "repairGeneral": "ⅹ",
    "repairAccident": "○",
    "pointHyundai": "-",
    "pointKia": "-",
    "notes": "-",
    "registerDate": 20251223
  },
  {
    "name": "카카오모터스",
    "grade": "1급",
    "priority": 1,
    "HCS": "Y",
    "phone": "010-4387-0501 (이계재)",
    "address": "인천 계양구 아나지로 64 ",
    "lat": 37.524967,
    "lng": 126.698566,
    "monthlyCapacity": "ㅇㅇ대",
    "currentIncoming": "ㅇㅇ대",
    "possibleIncoming": "ㅇㅇ대",
    "repairGeneral": "ⅹ",
    "repairAccident": "o",
    "pointHyundai": "-",
    "pointKia": "-",
    "notes": "-",
    "registerDate": 20251223
  },
  {
    "name": "차편한자동차",
    "grade": "1급",
    "priority": 1,
    "HCS": "Y",
    "phone": "010-3262-0511 (석진술)",
    "address": "인천 동구 송현동 140-37",
    "lat": 37.4892183,
    "lng": 126.6507,
    "monthlyCapacity": "ㅇㅇ대",
    "currentIncoming": "ㅇㅇ대",
    "possibleIncoming": "ㅇㅇ대",
    "repairGeneral": "ⅹ",
    "repairAccident": "○",
    "pointHyundai": "-",
    "pointKia": "-",
    "notes": "-",
    "registerDate": 20251223
  }
]
