[
    {
    "name": "우리동네카센터",
    "grade": "3급",
    "phone": "0319884089",
    "address": "경기도 김포시 걸포로 146 (걸포동)",
    "lat": "37.6437994",
    "lng": "126.7019811",
    "monthlyCapacity": "ㅇㅇ대",
    "currentIncoming": "ㅇㅇ대",
    "possibleIncoming": "ㅇㅇ대",
    "repairGeneral": "○",
    "repairAccident": "ⅹ",
    "pointHyundai": "",
    "pointKia": "",
    "notes": ""
  },
  {
    "name": "운양동카센터",
    "grade": "3급",
    "phone": "0319872563",
    "address": "경기도 김포시 김포한강11로331번길 137 (운양동)",
    "lat": "37.6606429",
    "lng": "126.6811840",
    "monthlyCapacity": "ㅇㅇ대",
    "currentIncoming": "ㅇㅇ대",
    "possibleIncoming": "ㅇㅇ대",
    "repairGeneral": "○",
    "repairAccident": "ⅹ",
    "pointHyundai": "",
    "pointKia": "",
    "notes": "(입고 전 예약 必)"
  },
  {
    "name": "자동차1번지",
    "grade": "3급",
    "phone": "0535636933",
    "address": "대구광역시 서구 국채보상로 196-1 (평리동)",
    "lat": "35.8696502",
    "lng": "128.5526203",
    "monthlyCapacity": "ㅇㅇ대",
    "currentIncoming": "ㅇㅇ대",
    "possibleIncoming": "ㅇㅇ대",
    "repairGeneral": "○",
    "repairAccident": "ⅹ",
    "pointHyundai": "",
    "pointKia": "",
    "notes": ""
  },
  {
    "name": "전곡점기아오토큐(기아)",
    "grade": "3급",
    "phone": "0318328500",
    "address": "경기도 연천군 평화로698번길 92 (전곡읍)",
    "lat": "38.0341831",
    "lng": "127.0644375",
    "monthlyCapacity": "ㅇㅇ대",
    "currentIncoming": "ㅇㅇ대",
    "possibleIncoming": "ㅇㅇ대",
    "repairGeneral": "○",
    "repairAccident": "ⅹ",
    "pointHyundai": "",
    "pointKia": "○",
    "notes": ""
  },
  {
    "name": "제이모터스",
    "grade": "3급",
    "phone": "0314541011",
    "address": "경기도 의왕시 오전공업길 6 (오전동)",
    "lat": "37.3563252",
    "lng": "126.9670847",
    "monthlyCapacity": "ㅇㅇ대",
    "currentIncoming": "ㅇㅇ대",
    "possibleIncoming": "ㅇㅇ대",
    "repairGeneral": "○",
    "repairAccident": "ⅹ",
    "pointHyundai": "",
    "pointKia": "",
    "notes": "(소모품 교체 불가)"
  },
  {
    "name": "제이케이모터스",
    "grade": "3급",
    "phone": "01092633247",
    "address": "경기도 평택시 서탄2로 146 (서탄면)",
    "lat": "37.1153083",
    "lng": "127.0354227",
    "monthlyCapacity": "ㅇㅇ대",
    "currentIncoming": "ㅇㅇ대",
    "possibleIncoming": "ㅇㅇ대",
    "repairGeneral": "○",
    "repairAccident": "ⅹ",
    "pointHyundai": "",
    "pointKia": "",
    "notes": ""
  },
  {
    "name": "좋은차만들기",
    "grade": "3급",
    "phone": "0226826907",
    "address": "경기도 광명시 시청로 63 (철산동)",
    "lat": "37.4823176",
    "lng": "126.8653514",
    "monthlyCapacity": "ㅇㅇ대",
    "currentIncoming": "ㅇㅇ대",
    "possibleIncoming": "ㅇㅇ대",
    "repairGeneral": "○",
    "repairAccident": "ⅹ",
    "pointHyundai": "",
    "pointKia": "",
    "notes": "(예약必)(타이어교환X)"
  },
  {
    "name": "주식회사 싸이오토모티브",
    "grade": "3급",
    "phone": "01072356177",
    "address": "강원특별자치도 속초시 번영로 145-10 ",
    "lat": "38.2118678",
    "lng": "128.5882961",
    "monthlyCapacity": "ㅇㅇ대",
    "currentIncoming": "ㅇㅇ대",
    "possibleIncoming": "ㅇㅇ대",
    "repairGeneral": "○",
    "repairAccident": "ⅹ",
    "pointHyundai": "",
    "pointKia": "",
    "notes": ""
  },
  {
    "name": "청구모터스",
    "grade": "3급",
    "phone": "0534274552",
    "address": "대구광역시 동구 국채보상로163길 5 (신천동)",
    "lat": "35.8682977",
    "lng": "128.6170016",
    "monthlyCapacity": "ㅇㅇ대",
    "currentIncoming": "ㅇㅇ대",
    "possibleIncoming": "ㅇㅇ대",
    "repairGeneral": "○",
    "repairAccident": "ⅹ",
    "pointHyundai": "",
    "pointKia": "",
    "notes": ""
  },
  {
    "name": "청주열린타이어",
    "grade": "3급",
    "phone": "0432621238",
    "address": "충청북도 청주시 흥덕구 직지대로 596 (봉명동)",
    "lat": "36.6429236",
    "lng": "127.4589482",
    "monthlyCapacity": "ㅇㅇ대",
    "currentIncoming": "ㅇㅇ대",
    "possibleIncoming": "ㅇㅇ대",
    "repairGeneral": "○",
    "repairAccident": "ⅹ",
    "pointHyundai": "",
    "pointKia": "",
    "notes": "(타이어전용)(입고금지)"
  },
  {
    "name": "친구중고타이어",
    "grade": "3급",
    "phone": "0337347911",
    "address": "강원특별자치도 원주시 북원로 2817 ",
    "lat": "37.3945192",
    "lng": "127.9506501",
    "monthlyCapacity": "ㅇㅇ대",
    "currentIncoming": "ㅇㅇ대",
    "possibleIncoming": "ㅇㅇ대",
    "repairGeneral": "ⅹ",
    "repairAccident": "ⅹ",
    "pointHyundai": "",
    "pointKia": "",
    "notes": "(타이어만 가능, 얼라이먼트X)"
  },
  {
    "name": "카맨샵죽전점",
    "grade": "3급",
    "phone": "0535666839",
    "address": "대구광역시 달서구 와룡로41길 35-6 (죽전동)",
    "lat": "35.8510862",
    "lng": "128.5348957",
    "monthlyCapacity": "ㅇㅇ대",
    "currentIncoming": "ㅇㅇ대",
    "possibleIncoming": "ㅇㅇ대",
    "repairGeneral": "○",
    "repairAccident": "ⅹ",
    "pointHyundai": "",
    "pointKia": "",
    "notes": ""
  },
  {
    "name": "카플러스",
    "grade": "3급",
    "phone": "0517515847",
    "address": "부산광역시 연제구 과정로 210-1 (연산동)",
    "lat": "35.1880264",
    "lng": "129.1041957",
    "monthlyCapacity": "ㅇㅇ대",
    "currentIncoming": "ㅇㅇ대",
    "possibleIncoming": "ㅇㅇ대",
    "repairGeneral": "○",
    "repairAccident": "ⅹ",
    "pointHyundai": "",
    "pointKia": "",
    "notes": ""
  },
  {
    "name": "코리아카종합센타",
    "grade": "3급",
    "phone": "0432688868",
    "address": "충청북도 청주시 흥덕구 봉명로 222 (봉명동)",
    "lat": "36.6396496",
    "lng": "127.4662486",
    "monthlyCapacity": "ㅇㅇ대",
    "currentIncoming": "ㅇㅇ대",
    "possibleIncoming": "ㅇㅇ대",
    "repairGeneral": "○",
    "repairAccident": "ⅹ",
    "pointHyundai": "",
    "pointKia": "",
    "notes": "타이어교환X (20인치이상 )"
  },
  {
    "name": "타이어클럽",
    "grade": "3급",
    "phone": "0632760772",
    "address": "전라북도 전주시 덕진구 권삼득로 120 (진북동)",
    "lat": "35.8311450",
    "lng": "127.1425091",
    "monthlyCapacity": "ㅇㅇ대",
    "currentIncoming": "ㅇㅇ대",
    "possibleIncoming": "ㅇㅇ대",
    "repairGeneral": "○",
    "repairAccident": "ⅹ",
    "pointHyundai": "",
    "pointKia": "",
    "notes": ""
  },
  {
    "name": "타이어타운서울카",
    "grade": "3급",
    "phone": "0638541723",
    "address": "전라북도 익산시 인북로64길 1 (신동, 타이어타운)",
    "lat": "35.9598906",
    "lng": "126.9620007",
    "monthlyCapacity": "ㅇㅇ대",
    "currentIncoming": "ㅇㅇ대",
    "possibleIncoming": "ㅇㅇ대",
    "repairGeneral": "○",
    "repairAccident": "ⅹ",
    "pointHyundai": "",
    "pointKia": "",
    "notes": ""
  },
  {
    "name": "타이어프로 포승점",
    "grade": "3급",
    "phone": "0316818505",
    "address": "경기 평택시 포승읍 서동대로 1180",
    "lat": "36.9841350",
    "lng": "126.8846714",
    "monthlyCapacity": "ㅇㅇ대",
    "currentIncoming": "ㅇㅇ대",
    "possibleIncoming": "ㅇㅇ대",
    "repairGeneral": "○",
    "repairAccident": "ⅹ",
    "pointHyundai": "",
    "pointKia": "",
    "notes": ""
  },
  {
    "name": "타이어프로부평남부점",
    "grade": "3급",
    "phone": "0323611155",
    "address": "인천광역시 부평구 장제로 93 (부평동)",
    "lat": "37.4938894",
    "lng": "126.7296354",
    "monthlyCapacity": "ㅇㅇ대",
    "currentIncoming": "ㅇㅇ대",
    "possibleIncoming": "ㅇㅇ대",
    "repairGeneral": "ⅹ",
    "repairAccident": "ⅹ",
    "pointHyundai": "",
    "pointKia": "",
    "notes": "(엔진오일만 가능)"
  },
  {
    "name": "타이어프로중산점",
    "grade": "3급",
    "phone": "0319750052",
    "address": "경기도 고양시 일산동구 중산로157번길 3 (중산동)",
    "lat": "37.6858135",
    "lng": "126.7807634",
    "monthlyCapacity": "ㅇㅇ대",
    "currentIncoming": "ㅇㅇ대",
    "possibleIncoming": "ㅇㅇ대",
    "repairGeneral": "○",
    "repairAccident": "ⅹ",
    "pointHyundai": "",
    "pointKia": "",
    "notes": ""
  },
  {
    "name": "투모터스",
    "grade": "3급",
    "phone": "0539650555",
    "address": "대구광역시 동구 안심로 225 (서호동)",
    "lat": "35.8662194",
    "lng": "128.7091931",
    "monthlyCapacity": "ㅇㅇ대",
    "currentIncoming": "ㅇㅇ대",
    "possibleIncoming": "ㅇㅇ대",
    "repairGeneral": "○",
    "repairAccident": "ⅹ",
    "pointHyundai": "",
    "pointKia": "",
    "notes": ""
  },
  {
    "name": "티스테이션 울산서동점",
    "grade": "3급",
    "phone": "0522921919",
    "address": "울산광역시 중구 북부순환도로 830 (서동)",
    "lat": "35.5784705",
    "lng": "129.3423832",
    "monthlyCapacity": "ㅇㅇ대",
    "currentIncoming": "ㅇㅇ대",
    "possibleIncoming": "ㅇㅇ대",
    "repairGeneral": "○",
    "repairAccident": "ⅹ",
    "pointHyundai": "",
    "pointKia": "",
    "notes": ""
  },
  {
    "name": "패덕자동차공업사",
    "grade": "3급",
    "phone": "025810442",
    "address": "서울특별시 서초구 강남대로 221 (양재동, 양재역환승주차장)",
    "lat": "37.4836886",
    "lng": "127.0341274",
    "monthlyCapacity": "ㅇㅇ대",
    "currentIncoming": "ㅇㅇ대",
    "possibleIncoming": "ㅇㅇ대",
    "repairGeneral": "○",
    "repairAccident": "ⅹ",
    "pointHyundai": "",
    "pointKia": "",
    "notes": ""
  },
  {
    "name": "하이카서비스광산점",
    "grade": "3급",
    "phone": "0629530485",
    "address": "광주광역시 광산구 임방울대로 136 (운남동)",
    "lat": "35.1732613",
    "lng": "126.8178295",
    "monthlyCapacity": "ㅇㅇ대",
    "currentIncoming": "ㅇㅇ대",
    "possibleIncoming": "ㅇㅇ대",
    "repairGeneral": "○",
    "repairAccident": "ⅹ",
    "pointHyundai": "",
    "pointKia": "",
    "notes": ""
  },
  {
    "name": "한강자동차공업사",
    "grade": "3급",
    "phone": "024738278",
    "address": "서울특별시 강동구 성안로 77-1 (성내동)",
    "lat": "37.5306017",
    "lng": "127.1318757",
    "monthlyCapacity": "ㅇㅇ대",
    "currentIncoming": "ㅇㅇ대",
    "possibleIncoming": "ㅇㅇ대",
    "repairGeneral": "○",
    "repairAccident": "ⅹ",
    "pointHyundai": "",
    "pointKia": "",
    "notes": ""
  },
  {
    "name": "한국타이어영판",
    "grade": "3급",
    "phone": "028373325",
    "address": "서울특별시 구로구 가마산로 264 (구로동)",
    "lat": "37.4954374",
    "lng": "126.8900634",
    "monthlyCapacity": "ㅇㅇ대",
    "currentIncoming": "ㅇㅇ대",
    "possibleIncoming": "ㅇㅇ대",
    "repairGeneral": "○",
    "repairAccident": "ⅹ",
    "pointHyundai": "",
    "pointKia": "",
    "notes": "(타이어만 가능)"
  },
  {
    "name": "한밭카서비스",
    "grade": "3급",
    "phone": "0426245918",
    "address": "대전광역시 대덕구 중리로 5 (중리동)",
    "lat": "36.3596248",
    "lng": "127.4251495",
    "monthlyCapacity": "ㅇㅇ대",
    "currentIncoming": "ㅇㅇ대",
    "possibleIncoming": "ㅇㅇ대",
    "repairGeneral": "○",
    "repairAccident": "ⅹ",
    "pointHyundai": "",
    "pointKia": "",
    "notes": ""
  },
  {
    "name": "행복타이어(타이어케이)",
    "grade": "3급",
    "phone": "0632712513",
    "address": "전북특별자치도 전주시 덕진구 동부대로 1246 ",
    "lat": "35.8702296",
    "lng": "127.1106071",
    "monthlyCapacity": "ㅇㅇ대",
    "currentIncoming": "ㅇㅇ대",
    "possibleIncoming": "ㅇㅇ대",
    "repairGeneral": "○",
    "repairAccident": "ⅹ",
    "pointHyundai": "",
    "pointKia": "",
    "notes": ""
  },
  {
    "name": "현대공업사",
    "grade": "3급",
    "phone": "025974066",
    "address": "서울특별시 서초구 명달로 98 (서초동)",
    "lat": "37.4859773",
    "lng": "127.0042814",
    "monthlyCapacity": "ㅇㅇ대",
    "currentIncoming": "ㅇㅇ대",
    "possibleIncoming": "ㅇㅇ대",
    "repairGeneral": "○",
    "repairAccident": "ⅹ",
    "pointHyundai": "",
    "pointKia": "",
    "notes": ""
  },
  {
    "name": "현대서비스",
    "grade": "3급",
    "phone": "0517538294",
    "address": "부산광역시 수영구 광안해변로 427-1 (민락동)",
    "lat": "35.1595864",
    "lng": "129.1294512",
    "monthlyCapacity": "ㅇㅇ대",
    "currentIncoming": "ㅇㅇ대",
    "possibleIncoming": "ㅇㅇ대",
    "repairGeneral": "○",
    "repairAccident": "ⅹ",
    "pointHyundai": "",
    "pointKia": "",
    "notes": ""
  },
  {
    "name": "현대자동차광적점",
    "grade": "3급",
    "phone": "0318368804",
    "address": "경기도 양주시 부흥로 947 (광적면)",
    "lat": "37.8097040",
    "lng": "126.9945196",
    "monthlyCapacity": "ㅇㅇ대",
    "currentIncoming": "ㅇㅇ대",
    "possibleIncoming": "ㅇㅇ대",
    "repairGeneral": "○",
    "repairAccident": "ⅹ",
    "pointHyundai": "",
    "pointKia": "",
    "notes": ""
  },
  {
    "name": "현대카금호타이어",
    "grade": "3급",
    "phone": "0334615238",
    "address": "강원도 인제군 기린로 66 (기린면, 현대카금호타이어)",
    "lat": "37.9578734",
    "lng": "128.3185443",
    "monthlyCapacity": "ㅇㅇ대",
    "currentIncoming": "ㅇㅇ대",
    "possibleIncoming": "ㅇㅇ대",
    "repairGeneral": "○",
    "repairAccident": "ⅹ",
    "pointHyundai": "",
    "pointKia": "",
    "notes": ""
  },
  {
    "name": "현대카서비스(광진)",
    "grade": "3급",
    "phone": "0234377909",
    "address": "서울특별시 광진구 자양로 189 (구의동)",
    "lat": "37.5445422",
    "lng": "127.0848009",
    "monthlyCapacity": "ㅇㅇ대",
    "currentIncoming": "ㅇㅇ대",
    "possibleIncoming": "ㅇㅇ대",
    "repairGeneral": "○",
    "repairAccident": "ⅹ",
    "pointHyundai": "",
    "pointKia": "",
    "notes": ""
  },
  {
    "name": "현대카서비스(수원)",
    "grade": "3급",
    "phone": "0312278005",
    "address": "경기도 수원시 권선구 호매실로 21-17 (고색동)",
    "lat": "37.2550255",
    "lng": "126.9718320",
    "monthlyCapacity": "ㅇㅇ대",
    "currentIncoming": "ㅇㅇ대",
    "possibleIncoming": "ㅇㅇ대",
    "repairGeneral": "○",
    "repairAccident": "ⅹ",
    "pointHyundai": "",
    "pointKia": "",
    "notes": "(예약必)(타이어불가)"
  }
]
